[{"FEATURE2": "-999", "NAME": "Albertville", "POP_2010": "21160", "STATE_FIPS": "1", "LATITUDE": "34.2675937", "LONGITUDE": "-86.2088669", "qwi_geography": "0110700", "industry": {"total": 31925.25, "1": {"name": "Food Manufacturing", "emp": 5992.25}, "2": {"name": "Food Services and Drinking Places", "emp": 2405}, "3": {"name": "Educational Services", "emp": 2297.75}}}, {"FEATURE2": "-999", "NAME": "Alexander City", "POP_2010": "14875", "STATE_FIPS": "1", "LATITUDE": "32.944012", "LONGITUDE": "-85.9538532", "qwi_geography": "0110760", "industry": {"total": 11265.5, "1": {"name": "Administrative and Support Services", "emp": 949.5}, "2": {"name": "Transportation Equipment Manufacturing", "emp": 856.5}, "3": {"name": "Educational Services", "emp": 806.5}}}, {"FEATURE2": "County Seat", "NAME": "Anniston", "POP_2010": "23106", "STATE_FIPS": "1", "LATITUDE": "33.6598257", "LONGITUDE": "-85.8316318", "qwi_geography": "0111500", "industry": {"total": 35534, "1": {"name": "Educational Services", "emp": 3680}, "2": {"name": "Food Services and Drinking Places", "emp": 3238}, "3": {"name": "Ambulatory Health Care Services", "emp": 2343.5}}}, {"FEATURE2": "-999", "NAME": "Atmore", "POP_2010": "10194", "STATE_FIPS": "1", "LATITUDE": "31.0237921", "LONGITUDE": "-87.4938708", "qwi_geography": "0112120", "industry": {"total": 11107.75, "1": {"name": "Executive, Legislative, and Other General Government Support", "emp": 1203.75}, "2": {"name": "Amusement, Gambling, and Recreation Industries", "emp": 1074.75}, "3": {"name": "Educational Services", "emp": 910.75}}}, {"FEATURE2": "-999", "NAME": "Auburn", "POP_2010": "53380", "STATE_FIPS": "1", "LATITUDE": "32.6098566", "LONGITUDE": "-85.4807825", "qwi_geography": "0112220", "industry": {"total": 46860.25, "1": {"name": "Educational Services", "emp": 8539.25}, "2": {"name": "Food Services and Drinking Places", "emp": 4777.75}, "3": {"name": "Administrative and Support Services", "emp": 2635.25}}}, {"FEATURE2": "County Seat", "NAME": "Birmingham", "POP_2010": "212237", "STATE_FIPS": "1", "LATITUDE": "33.5206608", "LONGITUDE": "-86.80249", "qwi_geography": "0113820", "industry": {"total": 449738, "1": {"name": "Educational Services", "emp": 36252}, "2": {"name": "Food Services and Drinking Places", "emp": 32032.75}, "3": {"name": "Ambulatory Health Care Services", "emp": 30046}}}, {"FEATURE2": "County Seat", "NAME": "Cullman", "POP_2010": "14775", "STATE_FIPS": "1", "LATITUDE": "34.1748208", "LONGITUDE": "-86.8436124", "qwi_geography": "0118980", "industry": {"total": 25830.25, "1": {"name": "Educational Services", "emp": 2138}, "2": {"name": "Food Services and Drinking Places", "emp": 1863.5}, "3": {"name": "Ambulatory Health Care Services", "emp": 1644.75}}}, {"FEATURE2": "-999", "NAME": "Daphne", "POP_2010": "21570", "STATE_FIPS": "1", "LATITUDE": "30.6035255", "LONGITUDE": "-87.9036047", "qwi_geography": "0119300", "industry": {"total": 59162.75, "1": {"name": "Food Services and Drinking Places", "emp": 7600}, "2": {"name": "Educational Services", "emp": 6081.5}, "3": {"name": "Ambulatory Health Care Services", "emp": 3091.75}}}, {"FEATURE2": "County Seat", "NAME": "Decatur", "POP_2010": "55683", "STATE_FIPS": "1", "LATITUDE": "34.6059254", "LONGITUDE": "-86.9833417", "qwi_geography": "0119460", "industry": {"total": 47220, "1": {"name": "Educational Services", "emp": 3583.25}, "2": {"name": "Food Services and Drinking Places", "emp": 3382}, "3": {"name": "Food Manufacturing", "emp": 2931.25}}}, {"FEATURE2": "County Seat", "NAME": "Dothan", "POP_2010": "65496", "STATE_FIPS": "1", "LATITUDE": "31.2232313", "LONGITUDE": "-85.3904889", "qwi_geography": "0120020", "industry": {"total": 48765.75, "1": {"name": "Hospitals", "emp": 4682.25}, "2": {"name": "Educational Services", "emp": 3879.5}, "3": {"name": "Food Services and Drinking Places", "emp": 3767.5}}}, {"FEATURE2": "-999", "NAME": "Enterprise", "POP_2010": "26562", "STATE_FIPS": "1", "LATITUDE": "31.3151708", "LONGITUDE": "-85.8552161", "qwi_geography": "0121460", "industry": {"total": 13422, "1": {"name": "Food Manufacturing", "emp": 1739}, "2": {"name": "Educational Services", "emp": 1195.25}, "3": {"name": "Food Services and Drinking Places", "emp": 1116.25}}}, {"FEATURE2": "-999", "NAME": "Eufaula", "POP_2010": "13137", "STATE_FIPS": "1", "LATITUDE": "31.8912717", "LONGITUDE": "-85.1454876", "qwi_geography": "0121640", "industry": {"total": 6782.25, "1": {"name": "Food Manufacturing", "emp": 1220.5}, "2": {"name": "Educational Services", "emp": 492.25}, "3": {"name": "Food Services and Drinking Places", "emp": 446}}}, {"FEATURE2": "County Seat", "NAME": "Florence", "POP_2010": "39319", "STATE_FIPS": "1", "LATITUDE": "34.79981", "LONGITUDE": "-87.677251", "qwi_geography": "0122520", "industry": {"total": 45169.25, "1": {"name": "Food Services and Drinking Places", "emp": 3841}, "2": {"name": "Educational Services", "emp": 3816.75}, "3": {"name": "Ambulatory Health Care Services", "emp": 2800.75}}}, {"FEATURE2": "County Seat", "NAME": "Fort Payne", "POP_2010": "14012", "STATE_FIPS": "1", "LATITUDE": "34.4442547", "LONGITUDE": "-85.7196893", "qwi_geography": "0122840", "industry": {"total": 18298.25, "1": {"name": "Educational Services", "emp": 1718.5}, "2": {"name": "Transportation Equipment Manufacturing", "emp": 1376.25}, "3": {"name": "Apparel Manufacturing", "emp": 1083.25}}}, {"FEATURE2": "County Seat", "NAME": "Gadsden", "POP_2010": "36856", "STATE_FIPS": "1", "LATITUDE": "34.014264", "LONGITUDE": "-86.0066386", "qwi_geography": "0123460", "industry": {"total": 31660, "1": {"name": "Food Services and Drinking Places", "emp": 2729.75}, "2": {"name": "Ambulatory Health Care Services", "emp": 2721.5}, "3": {"name": "Educational Services", "emp": 2681.5}}}, {"FEATURE2": "County Seat", "NAME": "Huntsville", "POP_2010": "180105", "STATE_FIPS": "1", "LATITUDE": "34.7303688", "LONGITUDE": "-86.5861037", "qwi_geography": "0126620", "industry": {"total": 174966, "1": {"name": "Professional, Scientific, and Technical Services", "emp": 31589}, "2": {"name": "Administrative and Support Services", "emp": 13569}, "3": {"name": "Educational Services", "emp": 13564}}}, {"FEATURE2": "County Seat", "NAME": "Mobile", "POP_2010": "195111", "STATE_FIPS": "1", "LATITUDE": "30.6943566", "LONGITUDE": "-88.0430541", "qwi_geography": "0133660", "industry": {"total": 152162.75, "1": {"name": "Educational Services", "emp": 13625.5}, "2": {"name": "Food Services and Drinking Places", "emp": 11319.75}, "3": {"name": "Ambulatory Health Care Services", "emp": 10183.25}}}, {"FEATURE2": "State Capital County Seat", "NAME": "Montgomery", "POP_2010": "205764", "STATE_FIPS": "1", "LATITUDE": "32.3668052", "LONGITUDE": "-86.2999689", "qwi_geography": "0133860", "industry": {"total": 142726.5, "1": {"name": "Educational Services", "emp": 11005.5}, "2": {"name": "Food Services and Drinking Places", "emp": 9875.25}, "3": {"name": "Administrative and Support Services", "emp": 8435.75}}}, {"FEATURE2": "County Seat", "NAME": "Ozark", "POP_2010": "14907", "STATE_FIPS": "1", "LATITUDE": "31.4590576", "LONGITUDE": "-85.6404932", "qwi_geography": "0137120", "industry": {"total": 12598, "1": {"name": "Transportation Equipment Manufacturing", "emp": 3335.5}, "2": {"name": "Educational Services", "emp": 1429.75}, "3": {"name": "Food Services and Drinking Places", "emp": 700}}}, {"FEATURE2": "County Seat", "NAME": "Scottsboro", "POP_2010": "14770", "STATE_FIPS": "1", "LATITUDE": "34.6723069", "LONGITUDE": "-86.0341463", "qwi_geography": "0142460", "industry": {"total": 14357.25, "1": {"name": "Textile Product Mills", "emp": 1428}, "2": {"name": "Educational Services", "emp": 1293.5}, "3": {"name": "Textile Mills", "emp": 1170}}}, {"FEATURE2": "County Seat", "NAME": "Selma", "POP_2010": "20756", "STATE_FIPS": "1", "LATITUDE": "32.4073589", "LONGITUDE": "-87.0211007", "qwi_geography": "0142820", "industry": {"total": 11244.25, "1": {"name": "Educational Services", "emp": 1247.5}, "2": {"name": "Ambulatory Health Care Services", "emp": 648.25}, "3": {"name": "Food Services and Drinking Places", "emp": 607}}}, {"FEATURE2": "County Seat", "NAME": "Talladega", "POP_2010": "15676", "STATE_FIPS": "1", "LATITUDE": "33.4359416", "LONGITUDE": "-86.1058048", "qwi_geography": "0145180", "industry": {"total": 27230.5, "1": {"name": "Transportation Equipment Manufacturing", "emp": 6114}, "2": {"name": "Educational Services", "emp": 2779.5}, "3": {"name": "Administrative and Support Services", "emp": 1442.25}}}, {"FEATURE2": "County Seat", "NAME": "Troy", "POP_2010": "18033", "STATE_FIPS": "1", "LATITUDE": "31.8087678", "LONGITUDE": "-85.969951", "qwi_geography": "0145980", "industry": {"total": 12301.5, "1": {"name": "Educational Services", "emp": 1919.25}, "2": {"name": "Truck Transportation", "emp": 932}, "3": {"name": "Food Services and Drinking Places", "emp": 881}}}, {"FEATURE2": "County Seat", "NAME": "Tuscaloosa", "POP_2010": "90468", "STATE_FIPS": "1", "LATITUDE": "33.2098407", "LONGITUDE": "-87.5691735", "qwi_geography": "0146220", "industry": {"total": 83777.5, "1": {"name": "Educational Services", "emp": 11604.5}, "2": {"name": "Transportation Equipment Manufacturing", "emp": 7126.25}, "3": {"name": "Food Services and Drinking Places", "emp": 7018.75}}}, {"FEATURE2": "-999", "NAME": "Valley", "POP_2010": "9524", "STATE_FIPS": "1", "LATITUDE": "32.8187406", "LONGITUDE": "-85.1793852", "qwi_geography": "0146740", "industry": {"total": 7023, "1": {"name": "Transportation Equipment Manufacturing", "emp": 1054.25}, "2": {"name": "Educational Services", "emp": 581.5}, "3": {"name": "Food Services and Drinking Places", "emp": 557}}}, {"FEATURE2": "County Seat", "NAME": "Anchorage", "POP_2010": "291826", "STATE_FIPS": "2", "LATITUDE": "61.2180556", "LONGITUDE": "-149.9002778", "qwi_geography": "0211260", "industry": {"total": 154276, "1": {"name": "Educational Services", "emp": 6601}, "2": {"name": "Ambulatory Health Care Services", "emp": 5472}, "3": {"name": "Food Services and Drinking Places", "emp": 5380.5}}}, {"FEATURE2": "County Seat", "NAME": "Fairbanks", "POP_2010": "31535", "STATE_FIPS": "2", "LATITUDE": "64.8377778", "LONGITUDE": "-147.7163889", "qwi_geography": "0221820", "industry": {"total": 28670, "1": {"name": "Educational Services", "emp": 2263.5}, "2": {"name": "Hospitals", "emp": 948}, "3": {"name": "Food Services and Drinking Places", "emp": 920.5}}}, {"FEATURE2": "State Capital County Seat", "NAME": "Juneau", "POP_2010": "31275", "STATE_FIPS": "2", "LATITUDE": "58.3019444", "LONGITUDE": "-134.4197222", "qwi_geography": "0227940", "industry": {"total": 15242, "1": {"name": "Executive, Legislative, and Other General Government Support", "emp": 860.5}, "2": {"name": "Educational Services", "emp": 639.5}, "3": {"name": "Administration of Human Resource Programs", "emp": 503}}}, {"FEATURE2": "County Seat", "NAME": "Ketchikan", "POP_2010": "8050", "STATE_FIPS": "2", "LATITUDE": "55.3422222", "LONGITUDE": "-131.6461111", "qwi_geography": "0228540", "industry": {"total": 9262, "1": {"name": "Food Manufacturing", "emp": 694}, "2": {"name": "Educational Services", "emp": 422.5}, "3": {"name": "Executive, Legislative, and Other General Government Support", "emp": 348.5}}}, {"FEATURE2": "County Seat", "NAME": "Flagstaff", "POP_2010": "65870", "STATE_FIPS": "4", "LATITUDE": "35.1980671", "LONGITUDE": "-111.6512725", "qwi_geography": "0422380", "industry": {"total": 46831, "1": {"name": "Educational Services", "emp": 6676.75}, "2": {"name": "Food Services and Drinking Places", "emp": 5595}, "3": {"name": "Accommodation", "emp": 4034.25}}}, {"FEATURE2": "-999", "NAME": "Lake Havasu City", "POP_2010": "52527", "STATE_FIPS": "4", "LATITUDE": "34.483901", "LONGITUDE": "-114.3224548", "qwi_geography": "0429420", "industry": {"total": 39443.25, "1": {"name": "Food Services and Drinking Places", "emp": 3735}, "2": {"name": "Hospitals", "emp": 2889.5}, "3": {"name": "Ambulatory Health Care Services", "emp": 2697.25}}}, {"FEATURE2": "County Seat", "NAME": "Nogales", "POP_2010": "20837", "STATE_FIPS": "4", "LATITUDE": "31.3403775", "LONGITUDE": "-110.9342532", "qwi_geography": "0435700", "industry": {"total": 9897, "1": {"name": "Merchant Wholesalers, Nondurable Goods", "emp": 1295.5}, "2": {"name": "Educational Services", "emp": 1185}, "3": {"name": "Food Services and Drinking Places", "emp": 702}}}, {"FEATURE2": "-999", "NAME": "Payson", "POP_2010": "15301", "STATE_FIPS": "4", "LATITUDE": "34.2308684", "LONGITUDE": "-111.3251355", "qwi_geography": "0437740", "industry": {"total": 10002.25, "1": {"name": "Food Services and Drinking Places", "emp": 1099.25}, "2": {"name": "Educational Services", "emp": 1047}, "3": {"name": "Nursing and Residential Care Facilities", "emp": 601.25}}}, {"FEATURE2": "State Capital County Seat", "NAME": "Phoenix", "POP_2010": "1445632", "STATE_FIPS": "4", "LATITUDE": "33.4483771", "LONGITUDE": "-112.0740373", "qwi_geography": "0438060", "industry": {"total": 1683404, "1": {"name": "Administrative and Support Services", "emp": 148381.5}, "2": {"name": "Educational Services", "emp": 126312.5}, "3": {"name": "Food Services and Drinking Places", "emp": 121850}}}, {"FEATURE2": "County Seat", "NAME": "Prescott", "POP_2010": "39843", "STATE_FIPS": "4", "LATITUDE": "34.5400242", "LONGITUDE": "-112.4685025", "qwi_geography": "0439140", "industry": {"total": 48916.25, "1": {"name": "Educational Services", "emp": 5196}, "2": {"name": "Food Services and Drinking Places", "emp": 4434.25}, "3": {"name": "Ambulatory Health Care Services", "emp": 3983.75}}}, {"FEATURE2": "County Seat", "NAME": "Safford", "POP_2010": "9566", "STATE_FIPS": "4", "LATITUDE": "32.8339546", "LONGITUDE": "-109.70758", "qwi_geography": "0440940", "industry": {"total": 8455.25, "1": {"name": "Educational Services", "emp": 1334}, "2": {"name": "Executive, Legislative, and Other General Government Support", "emp": 1240.25}, "3": {"name": "Mining (except Oil and Gas)", "emp": 642}}}, {"FEATURE2": "-999", "NAME": "Show Low", "POP_2010": "10660", "STATE_FIPS": "4", "LATITUDE": "34.2542084", "LONGITUDE": "-110.0298327", "qwi_geography": "0443320", "industry": {"total": 20541.25, "1": {"name": "Educational Services", "emp": 3097}, "2": {"name": "Food Services and Drinking Places", "emp": 1965.75}, "3": {"name": "Executive, Legislative, and Other General Government Support", "emp": 1752.25}}}, {"FEATURE2": "-999", "NAME": "Sierra Vista", "POP_2010": "43888", "STATE_FIPS": "4", "LATITUDE": "31.5545394", "LONGITUDE": "-110.3036912", "qwi_geography": "0443420", "industry": {"total": 23690, "1": {"name": "Educational Services", "emp": 3731.25}, "2": {"name": "Food Services and Drinking Places", "emp": 2025.5}, "3": {"name": "Professional, Scientific, and Technical Services", "emp": 1987.75}}}, {"FEATURE2": "County Seat", "NAME": "Tucson", "POP_2010": "520116", "STATE_FIPS": "4", "LATITUDE": "32.2217429", "LONGITUDE": "-110.926479", "qwi_geography": "0446060", "industry": {"total": 297535, "1": {"name": "Educational Services", "emp": 32441.5}, "2": {"name": "Food Services and Drinking Places", "emp": 24076}, "3": {"name": "Administrative and Support Services", "emp": 24009.5}}}, {"FEATURE2": "County Seat", "NAME": "Yuma", "POP_2010": "93064", "STATE_FIPS": "4", "LATITUDE": "32.7253249", "LONGITUDE": "-114.624397", "qwi_geography": "0449740", "industry": {"total": 48348, "1": {"name": "Support Activities for Agriculture and Forestry", "emp": 4415.75}, "2": {"name": "Educational Services", "emp": 4384.75}, "3": {"name": "Food Services and Drinking Places", "emp": 3860}}}, {"FEATURE2": "County Seat", "NAME": "Arkadelphia", "POP_2010": "10714", "STATE_FIPS": "5", "LATITUDE": "34.1209292", "LONGITUDE": "-93.053784", "qwi_geography": "0511660", "industry": {"total": 7292, "1": {"name": "Educational Services", "emp": 1432}, "2": {"name": "Wood Product Manufacturing", "emp": 716.25}, "3": {"name": "Food Services and Drinking Places", "emp": 632}}}, {"FEATURE2": "County Seat", "NAME": "Batesville", "POP_2010": "10248", "STATE_FIPS": "5", "LATITUDE": "35.769799", "LONGITUDE": "-91.6409722", "qwi_geography": "0512900", "industry": {"total": 13541.5, "1": {"name": "Hospitals", "emp": 1429.5}, "2": {"name": "Food Manufacturing", "emp": 1210}, "3": {"name": "Educational Services", "emp": 1144.25}}}, {"FEATURE2": "County Seat", "NAME": "Blytheville", "POP_2010": "15620", "STATE_FIPS": "5", "LATITUDE": "35.9272953", "LONGITUDE": "-89.9189754", "qwi_geography": "0514180", "industry": {"total": 15422.5, "1": {"name": "Primary Metal Manufacturing", "emp": 2476.75}, "2": {"name": "Educational Services", "emp": 1393}, "3": {"name": "Food Services and Drinking Places", "emp": 727.5}}}, {"FEATURE2": "County Seat", "NAME": "Camden", "POP_2010": "12183", "STATE_FIPS": "5", "LATITUDE": "33.5845582", "LONGITUDE": "-92.8343294", "qwi_geography": "0515780", "industry": {"total": 8705.25, "1": {"name": "Fabricated Metal Product Manufacturing", "emp": 1845.75}, "2": {"name": "Educational Services", "emp": 980.75}, "3": {"name": "Food Services and Drinking Places", "emp": 358}}}, {"FEATURE2": "County Seat", "NAME": "El Dorado", "POP_2010": "18884", "STATE_FIPS": "5", "LATITUDE": "33.20763", "LONGITUDE": "-92.6662674", "qwi_geography": "0520980", "industry": {"total": 15541.25, "1": {"name": "Educational Services", "emp": 1213}, "2": {"name": "Specialty Trade Contractors", "emp": 868.5}, "3": {"name": "Ambulatory Health Care Services", "emp": 800.75}}}, {"FEATURE2": "County Seat", "NAME": "Fayetteville", "POP_2010": "73580", "STATE_FIPS": "5", "LATITUDE": "36.0625795", "LONGITUDE": "-94.1574263", "qwi_geography": "0522220", "industry": {"total": 196655, "1": {"name": "Management of Companies and Enterprises", "emp": 24055.75}, "2": {"name": "Educational Services", "emp": 19422.5}, "3": {"name": "Food Services and Drinking Places", "emp": 14514}}}, {"FEATURE2": "County Seat", "NAME": "Forrest City", "POP_2010": "15371", "STATE_FIPS": "5", "LATITUDE": "35.0081474", "LONGITUDE": "-90.7898342", "qwi_geography": "0522620", "industry": {"total": 6308.5, "1": {"name": "Educational Services", "emp": 707}, "2": {"name": "Merchant Wholesalers, Nondurable Goods", "emp": 443.75}, "3": {"name": "Social Assistance", "emp": 425.25}}}, {"FEATURE2": "County Seat", "NAME": "Fort Smith", "POP_2010": "86209", "STATE_FIPS": "5", "LATITUDE": "35.3859242", "LONGITUDE": "-94.3985475", "qwi_geography": "0522900", "industry": {"total": 74937, "1": {"name": "Food Manufacturing", "emp": 6503}, "2": {"name": "Administrative and Support Services", "emp": 5247.25}, "3": {"name": "Food Services and Drinking Places", "emp": 5217}}}, {"FEATURE2": "County Seat", "NAME": "Harrison", "POP_2010": "12943", "STATE_FIPS": "5", "LATITUDE": "36.2297936", "LONGITUDE": "-93.1076765", "qwi_geography": "0525460", "industry": {"total": 12627.75, "1": {"name": "Educational Services", "emp": 1388.25}, "2": {"name": "Truck Transportation", "emp": 991.25}, "3": {"name": "Administrative and Support Services", "emp": 827.25}}}, {"FEATURE2": "County Seat", "NAME": "Helena", "POP_2010": "-999", "STATE_FIPS": "5", "LATITUDE": "34.5295471", "LONGITUDE": "-90.5917722", "qwi_geography": "0525760", "industry": {"total": 4512.25, "1": {"name": "Educational Services", "emp": 848}, "2": {"name": "Social Assistance", "emp": 440.5}, "3": {"name": "Ambulatory Health Care Services", "emp": 304.25}}}, {"FEATURE2": "County Seat", "NAME": "Hope", "POP_2010": "10095", "STATE_FIPS": "5", "LATITUDE": "33.6670616", "LONGITUDE": "-93.5915665", "qwi_geography": "0526260", "industry": {"total": 8526.25, "1": {"name": "Food Manufacturing", "emp": 1191.25}, "2": {"name": "Educational Services", "emp": 898}, "3": {"name": "Plastics and Rubber Products Manufacturing", "emp": 638}}}, {"FEATURE2": "County Seat", "NAME": "Hot Springs", "POP_2010": "35193", "STATE_FIPS": "5", "LATITUDE": "34.5037004", "LONGITUDE": "-93.0551795", "qwi_geography": "0526300", "industry": {"total": 29725.75, "1": {"name": "Food Services and Drinking Places", "emp": 3042.25}, "2": {"name": "Ambulatory Health Care Services", "emp": 2888.75}, "3": {"name": "Educational Services", "emp": 1805.5}}}, {"FEATURE2": "County Seat", "NAME": "Jonesboro", "POP_2010": "67263", "STATE_FIPS": "5", "LATITUDE": "35.8422967", "LONGITUDE": "-90.7042791", "qwi_geography": "0527860", "industry": {"total": 45925.5, "1": {"name": "Educational Services", "emp": 5080}, "2": {"name": "Food Services and Drinking Places", "emp": 3753.75}, "3": {"name": "Ambulatory Health Care Services", "emp": 3362.25}}}, {"FEATURE2": "State Capital County Seat", "NAME": "Little Rock", "POP_2010": "193524", "STATE_FIPS": "5", "LATITUDE": "34.7464809", "LONGITUDE": "-92.2895948", "qwi_geography": "0530780", "industry": {"total": 301428.5, "1": {"name": "Hospitals", "emp": 25863}, "2": {"name": "Educational Services", "emp": 21854.25}, "3": {"name": "Food Services and Drinking Places", "emp": 21221.75}}}, {"FEATURE2": "County Seat", "NAME": "Magnolia", "POP_2010": "11577", "STATE_FIPS": "5", "LATITUDE": "33.2670725", "LONGITUDE": "-93.2393341", "qwi_geography": "0531620", "industry": {"total": 7191.5, "1": {"name": "Educational Services", "emp": 997.25}, "2": {"name": "Wood Product Manufacturing", "emp": 675.25}, "3": {"name": "Food Services and Drinking Places", "emp": 444.75}}}, {"FEATURE2": "County Seat", "NAME": "Malvern", "POP_2010": "10318", "STATE_FIPS": "5", "LATITUDE": "34.3623149", "LONGITUDE": "-92.8129463", "qwi_geography": "0531680", "industry": {"total": 7074, "1": {"name": "Educational Services", "emp": 868.25}, "2": {"name": "Administrative and Support Services", "emp": 735.75}, "3": {"name": "Food Services and Drinking Places", "emp": 457}}}, {"FEATURE2": "County Seat", "NAME": "Mountain Home", "POP_2010": "12448", "STATE_FIPS": "5", "LATITUDE": "36.3353449", "LONGITUDE": "-92.3851593", "qwi_geography": "0534260", "industry": {"total": 12586.75, "1": {"name": "Miscellaneous Manufacturing", "emp": 1245.5}, "2": {"name": "Ambulatory Health Care Services", "emp": 1015}, "3": {"name": "Educational Services", "emp": 879.75}}}, {"FEATURE2": "County Seat", "NAME": "Paragould", "POP_2010": "26113", "STATE_FIPS": "5", "LATITUDE": "36.0584021", "LONGITUDE": "-90.4973286", "qwi_geography": "0537500", "industry": {"total": 15478, "1": {"name": "Transportation Equipment Manufacturing", "emp": 2727.5}, "2": {"name": "Administrative and Support Services", "emp": 2419.25}, "3": {"name": "Educational Services", "emp": 1258.75}}}, {"FEATURE2": "County Seat", "NAME": "Pine Bluff", "POP_2010": "49083", "STATE_FIPS": "5", "LATITUDE": "34.2284312", "LONGITUDE": "-92.0031955", "qwi_geography": "0538220", "industry": {"total": 27472.25, "1": {"name": "Justice, Public Order, and Safety Activities", "emp": 3621.5}, "2": {"name": "Educational Services", "emp": 3157}, "3": {"name": "Social Assistance", "emp": 1483.5}}}, {"FEATURE2": "County Seat", "NAME": "Russellville", "POP_2010": "27920", "STATE_FIPS": "5", "LATITUDE": "35.2784173", "LONGITUDE": "-93.1337856", "qwi_geography": "0540780", "industry": {"total": 28881.75, "1": {"name": "Food Manufacturing", "emp": 3857}, "2": {"name": "Educational Services", "emp": 3253.75}, "3": {"name": "Food Services and Drinking Places", "emp": 2039.75}}}, {"FEATURE2": "County Seat", "NAME": "Searcy", "POP_2010": "22858", "STATE_FIPS": "5", "LATITUDE": "35.2506406", "LONGITUDE": "-91.7362488", "qwi_geography": "0542620", "industry": {"total": 20982.5, "1": {"name": "Educational Services", "emp": 3284}, "2": {"name": "Food Services and Drinking Places", "emp": 1770.25}, "3": {"name": "Ambulatory Health Care Services", "emp": 1442.75}}}, {"FEATURE2": "County Seat", "NAME": "Texarkana", "POP_2010": "29919", "STATE_FIPS": "5", "LATITUDE": "33.4417915", "LONGITUDE": "-94.0376881", "qwi_geography": "0545500", "industry": {"total": 14070, "1": {"name": "Truck Transportation", "emp": 1206.25}, "2": {"name": "Educational Services", "emp": 1199.75}, "3": {"name": "Food Services and Drinking Places", "emp": 979.75}}}, {"FEATURE2": "County Seat", "NAME": "Bakersfield", "POP_2010": "347483", "STATE_FIPS": "6", "LATITUDE": "35.3732921", "LONGITUDE": "-119.0187125", "qwi_geography": "0612540", "industry": {"total": 238200.5, "1": {"name": "Educational Services", "emp": 27545.25}, "2": {"name": "Support Activities for Agriculture and Forestry", "emp": 19311.5}, "3": {"name": "Food Services and Drinking Places", "emp": 15982}}}, {"FEATURE2": "-999", "NAME": "Chico", "POP_2010": "86187", "STATE_FIPS": "6", "LATITUDE": "39.7284945", "LONGITUDE": "-121.8374777", "qwi_geography": "0617020", "industry": {"total": 68247.5, "1": {"name": "Educational Services", "emp": 8132}, "2": {"name": "Hospitals", "emp": 5953.75}, "3": {"name": "Food Services and Drinking Places", "emp": 5923}}}, {"FEATURE2": "-999", "NAME": "Clearlake", "POP_2010": "15250", "STATE_FIPS": "6", "LATITUDE": "38.9562556755", "LONGITUDE": "-122.643928573", "qwi_geography": "0617340", "industry": {"total": 12512.25, "1": {"name": "Social Assistance", "emp": 2039.25}, "2": {"name": "Educational Services", "emp": 1325}, "3": {"name": "Food Services and Drinking Places", "emp": 771}}}, {"FEATURE2": "County Seat", "NAME": "Crescent City", "POP_2010": "7643", "STATE_FIPS": "6", "LATITUDE": "41.7559481", "LONGITUDE": "-124.2017474", "qwi_geography": "0618860", "industry": {"total": 7031.25, "1": {"name": "Justice, Public Order, and Safety Activities", "emp": 1801.75}, "2": {"name": "Educational Services", "emp": 620.5}, "3": {"name": "Social Assistance", "emp": 453}}}, {"FEATURE2": "County Seat", "NAME": "El Centro", "POP_2010": "42598", "STATE_FIPS": "6", "LATITUDE": "32.792", "LONGITUDE": "-115.5630514", "qwi_geography": "0620940", "industry": {"total": 48884.5, "1": {"name": "Social Assistance", "emp": 5674}, "2": {"name": "Educational Services", "emp": 5256.75}, "3": {"name": "Justice, Public Order, and Safety Activities", "emp": 3478.5}}}, {"FEATURE2": "County Seat", "NAME": "Eureka", "POP_2010": "27191", "STATE_FIPS": "6", "LATITUDE": "40.8020712", "LONGITUDE": "-124.1636729", "qwi_geography": "0621700", "industry": {"total": 40464, "1": {"name": "Educational Services", "emp": 5243.5}, "2": {"name": "Food Services and Drinking Places", "emp": 3447.25}, "3": {"name": "Social Assistance", "emp": 2432.5}}}, {"FEATURE2": "County Seat", "NAME": "Fresno", "POP_2010": "494665", "STATE_FIPS": "6", "LATITUDE": "36.7477272", "LONGITUDE": "-119.7723661", "qwi_geography": "0623420", "industry": {"total": 307746.5, "1": {"name": "Educational Services", "emp": 34347.5}, "2": {"name": "Food Services and Drinking Places", "emp": 22827.5}, "3": {"name": "Support Activities for Agriculture and Forestry", "emp": 17230.75}}}, {"FEATURE2": "County Seat", "NAME": "Hanford", "POP_2010": "53967", "STATE_FIPS": "6", "LATITUDE": "36.3274502", "LONGITUDE": "-119.6456844", "qwi_geography": "0625260", "industry": {"total": 38229.75, "1": {"name": "Educational Services", "emp": 3672}, "2": {"name": "Justice, Public Order, and Safety Activities", "emp": 3634.25}, "3": {"name": "Food Manufacturing", "emp": 3604.75}}}, {"FEATURE2": "County Seat", "NAME": "Los Angeles", "POP_2010": "3792621", "STATE_FIPS": "6", "LATITUDE": "34.0522342", "LONGITUDE": "-118.2436849", "qwi_geography": "0631080", "industry": {"total": 5489704.25, "1": {"name": "Food Services and Drinking Places", "emp": 438772}, "2": {"name": "Educational Services", "emp": 438378.25}, "3": {"name": "Professional, Scientific, and Technical Services", "emp": 388428.5}}}, {"FEATURE2": "County Seat", "NAME": "Madera", "POP_2010": "61416", "STATE_FIPS": "6", "LATITUDE": "36.9613356", "LONGITUDE": "-120.0607176", "qwi_geography": "0631460", "industry": {"total": 39356.75, "1": {"name": "Support Activities for Agriculture and Forestry", "emp": 4398.75}, "2": {"name": "Hospitals", "emp": 3802.25}, "3": {"name": "Educational Services", "emp": 3625.5}}}, {"FEATURE2": "County Seat", "NAME": "Merced", "POP_2010": "78958", "STATE_FIPS": "6", "LATITUDE": "37.3021633", "LONGITUDE": "-120.4829677", "qwi_geography": "0632900", "industry": {"total": 64341, "1": {"name": "Educational Services", "emp": 10434}, "2": {"name": "Food Manufacturing", "emp": 6498.75}, "3": {"name": "Crop Production", "emp": 3951.25}}}, {"FEATURE2": "County Seat", "NAME": "Modesto", "POP_2010": "201165", "STATE_FIPS": "6", "LATITUDE": "37.6390972", "LONGITUDE": "-120.9968782", "qwi_geography": "0633700", "industry": {"total": 160657.25, "1": {"name": "Educational Services", "emp": 19525.75}, "2": {"name": "Food Services and Drinking Places", "emp": 13027.75}, "3": {"name": "Ambulatory Health Care Services", "emp": 8863.75}}}, {"FEATURE2": "County Seat", "NAME": "Napa", "POP_2010": "76915", "STATE_FIPS": "6", "LATITUDE": "38.2971367", "LONGITUDE": "-122.2855293", "qwi_geography": "0634900", "industry": {"total": 64089.25, "1": {"name": "Beverage and Tobacco Product Manufacturing", "emp": 8677.25}, "2": {"name": "Food Services and Drinking Places", "emp": 5577.5}, "3": {"name": "Educational Services", "emp": 4370.75}}}, {"FEATURE2": "-999", "NAME": "Oxnard", "POP_2010": "197899", "STATE_FIPS": "6", "LATITUDE": "34.1975048", "LONGITUDE": "-119.1770516", "qwi_geography": "0637100", "industry": {"total": 263449.75, "1": {"name": "Educational Services", "emp": 23686.75}, "2": {"name": "Food Services and Drinking Places", "emp": 22492.5}, "3": {"name": "Ambulatory Health Care Services", "emp": 13901.5}}}, {"FEATURE2": "County Seat", "NAME": "Red Bluff", "POP_2010": "14076", "STATE_FIPS": "6", "LATITUDE": "40.1784886", "LONGITUDE": "-122.2358302", "qwi_geography": "0639780", "industry": {"total": 15096, "1": {"name": "Educational Services", "emp": 1845}, "2": {"name": "Wood Product Manufacturing", "emp": 1570.25}, "3": {"name": "Social Assistance", "emp": 951.75}}}, {"FEATURE2": "County Seat", "NAME": "Redding", "POP_2010": "89861", "STATE_FIPS": "6", "LATITUDE": "40.5865396", "LONGITUDE": "-122.3916754", "qwi_geography": "0639820", "industry": {"total": 52444.5, "1": {"name": "Educational Services", "emp": 5117.25}, "2": {"name": "Food Services and Drinking Places", "emp": 4130.5}, "3": {"name": "Ambulatory Health Care Services", "emp": 3789.5}}}, {"FEATURE2": "County Seat", "NAME": "Riverside", "POP_2010": "303871", "STATE_FIPS": "6", "LATITUDE": "33.9533487", "LONGITUDE": "-117.3961564", "qwi_geography": "0640140", "industry": {"total": 1212963.5, "1": {"name": "Educational Services", "emp": 125501.5}, "2": {"name": "Food Services and Drinking Places", "emp": 102836}, "3": {"name": "Administrative and Support Services", "emp": 72264.75}}}, {"FEATURE2": "State Capital County Seat", "NAME": "Sacramento", "POP_2010": "466488", "STATE_FIPS": "6", "LATITUDE": "38.5815719", "LONGITUDE": "-121.4943996", "qwi_geography": "0640900", "industry": {"total": 823586, "1": {"name": "Educational Services", "emp": 63109}, "2": {"name": "Food Services and Drinking Places", "emp": 60894.25}, "3": {"name": "Professional, Scientific, and Technical Services", "emp": 52315.25}}}, {"FEATURE2": "County Seat", "NAME": "Salinas", "POP_2010": "150441", "STATE_FIPS": "6", "LATITUDE": "36.6777372", "LONGITUDE": "-121.6555013", "qwi_geography": "0641500", "industry": {"total": 143447.5, "1": {"name": "Support Activities for Agriculture and Forestry", "emp": 19655.5}, "2": {"name": "Crop Production", "emp": 14625.5}, "3": {"name": "Educational Services", "emp": 13180.5}}}, {"FEATURE2": "County Seat", "NAME": "San Diego", "POP_2010": "1307402", "STATE_FIPS": "6", "LATITUDE": "32.7153292", "LONGITUDE": "-117.1572551", "qwi_geography": "0641740", "industry": {"total": 1216404.5, "1": {"name": "Professional, Scientific, and Technical Services", "emp": 125889.25}, "2": {"name": "Educational Services", "emp": 118348.5}, "3": {"name": "Food Services and Drinking Places", "emp": 107249.75}}}, {"FEATURE2": "County Seat", "NAME": "San Francisco", "POP_2010": "805235", "STATE_FIPS": "6", "LATITUDE": "37.7749295", "LONGITUDE": "-122.4194155", "qwi_geography": "0641860", "industry": {"total": 2111280, "1": {"name": "Professional, Scientific, and Technical Services", "emp": 273880.5}, "2": {"name": "Food Services and Drinking Places", "emp": 159710.75}, "3": {"name": "Educational Services", "emp": 157847.5}}}, {"FEATURE2": "County Seat", "NAME": "San Jose", "POP_2010": "945942", "STATE_FIPS": "6", "LATITUDE": "37.3393857", "LONGITUDE": "-121.8949555", "qwi_geography": "0641940", "industry": {"total": 947890, "1": {"name": "Professional, Scientific, and Technical Services", "emp": 139302.75}, "2": {"name": "Computer and Electronic Product Manufacturing", "emp": 100139.5}, "3": {"name": "Educational Services", "emp": 71716.75}}}, {"FEATURE2": "County Seat", "NAME": "San Luis Obispo", "POP_2010": "45119", "STATE_FIPS": "6", "LATITUDE": "35.2827524", "LONGITUDE": "-120.6596156", "qwi_geography": "0642020", "industry": {"total": 93743.75, "1": {"name": "Food Services and Drinking Places", "emp": 9176}, "2": {"name": "Educational Services", "emp": 8849.25}, "3": {"name": "Professional, Scientific, and Technical Services", "emp": 4972}}}, {"FEATURE2": "County Seat", "NAME": "Santa Cruz", "POP_2010": "59946", "STATE_FIPS": "6", "LATITUDE": "36.9741171", "LONGITUDE": "-122.0307963", "qwi_geography": "0642100", "industry": {"total": 87321.75, "1": {"name": "Educational Services", "emp": 11935.5}, "2": {"name": "Food Services and Drinking Places", "emp": 8010.5}, "3": {"name": "Ambulatory Health Care Services", "emp": 5512}}}, {"FEATURE2": "-999", "NAME": "Santa Maria", "POP_2010": "99553", "STATE_FIPS": "6", "LATITUDE": "34.9530337", "LONGITUDE": "-120.4357191", "qwi_geography": "0642200", "industry": {"total": 156928.75, "1": {"name": "Educational Services", "emp": 17289}, "2": {"name": "Food Services and Drinking Places", "emp": 13945.75}, "3": {"name": "Professional, Scientific, and Technical Services", "emp": 10230}}}, {"FEATURE2": "County Seat", "NAME": "Santa Rosa", "POP_2010": "167815", "STATE_FIPS": "6", "LATITUDE": "38.4404675", "LONGITUDE": "-122.7144314", "qwi_geography": "0642220", "industry": {"total": 171600.25, "1": {"name": "Educational Services", "emp": 13755.5}, "2": {"name": "Food Services and Drinking Places", "emp": 13363.75}, "3": {"name": "Ambulatory Health Care Services", "emp": 10608}}}, {"FEATURE2": "County Seat", "NAME": "Sonora", "POP_2010": "4903", "STATE_FIPS": "6", "LATITUDE": "37.9840911", "LONGITUDE": "-120.3821381", "qwi_geography": "0643760", "industry": {"total": 14332.25, "1": {"name": "Hospitals", "emp": 1319}, "2": {"name": "Amusement, Gambling, and Recreation Industries", "emp": 1145.75}, "3": {"name": "Justice, Public Order, and Safety Activities", "emp": 1118.5}}}, {"FEATURE2": "County Seat", "NAME": "Stockton", "POP_2010": "291707", "STATE_FIPS": "6", "LATITUDE": "37.9577016", "LONGITUDE": "-121.2907796", "qwi_geography": "0644700", "industry": {"total": 204434, "1": {"name": "Educational Services", "emp": 20915.75}, "2": {"name": "Food Services and Drinking Places", "emp": 13722.75}, "3": {"name": "Warehousing and Storage", "emp": 10462.75}}}, {"FEATURE2": "County Seat", "NAME": "Susanville", "POP_2010": "17947", "STATE_FIPS": "6", "LATITUDE": "40.4162842", "LONGITUDE": "-120.6530063", "qwi_geography": "0645000", "industry": {"total": 6560, "1": {"name": "Justice, Public Order, and Safety Activities", "emp": 2149}, "2": {"name": "Educational Services", "emp": 656}, "3": {"name": "Food Services and Drinking Places", "emp": 361.25}}}, {"FEATURE2": "-999", "NAME": "Truckee", "POP_2010": "16180", "STATE_FIPS": "6", "LATITUDE": "39.327962", "LONGITUDE": "-120.1832533", "qwi_geography": "0646020", "industry": {"total": 24933.25, "1": {"name": "Educational Services", "emp": 2546}, "2": {"name": "Food Services and Drinking Places", "emp": 2211}, "3": {"name": "Ambulatory Health Care Services", "emp": 1424.25}}}, {"FEATURE2": "County Seat", "NAME": "Ukiah", "POP_2010": "16075", "STATE_FIPS": "6", "LATITUDE": "39.1501709", "LONGITUDE": "-123.2077831", "qwi_geography": "0646380", "industry": {"total": 25831.75, "1": {"name": "Educational Services", "emp": 2666}, "2": {"name": "Food Services and Drinking Places", "emp": 2301.5}, "3": {"name": "Social Assistance", "emp": 2138.75}}}, {"FEATURE2": "-999", "NAME": "Vallejo", "POP_2010": "115942", "STATE_FIPS": "6", "LATITUDE": "38.1040864", "LONGITUDE": "-122.2566367", "qwi_geography": "0646700", "industry": {"total": 131473.25, "1": {"name": "Educational Services", "emp": 26202.25}, "2": {"name": "Ambulatory Health Care Services", "emp": 10944.5}, "3": {"name": "Food Services and Drinking Places", "emp": 9458.5}}}, {"FEATURE2": "County Seat", "NAME": "Visalia", "POP_2010": "124442", "STATE_FIPS": "6", "LATITUDE": "36.3302284", "LONGITUDE": "-119.2920585", "qwi_geography": "0647300", "industry": {"total": 129368.25, "1": {"name": "Educational Services", "emp": 14540.25}, "2": {"name": "Support Activities for Agriculture and Forestry", "emp": 14246.25}, "3": {"name": "Food Services and Drinking Places", "emp": 7934.75}}}, {"FEATURE2": "County Seat", "NAME": "Yuba City", "POP_2010": "64925", "STATE_FIPS": "6", "LATITUDE": "39.1404477", "LONGITUDE": "-121.6169108", "qwi_geography": "0649700", "industry": {"total": 37103.75, "1": {"name": "Educational Services", "emp": 5225.25}, "2": {"name": "Food Services and Drinking Places", "emp": 2778}, "3": {"name": "Crop Production", "emp": 2245.25}}}, {"FEATURE2": "County Seat", "NAME": "Boulder", "POP_2010": "97385", "STATE_FIPS": "8", "LATITUDE": "40.0149856", "LONGITUDE": "-105.2705456", "qwi_geography": "0814500", "industry": {"total": 148604.25, "1": {"name": "Professional, Scientific, and Technical Services", "emp": 24571.5}, "2": {"name": "Educational Services", "emp": 19988.5}, "3": {"name": "Food Services and Drinking Places", "emp": 11299}}}, {"FEATURE2": "County Seat", "NAME": "Breckenridge", "POP_2010": "4540", "STATE_FIPS": "8", "LATITUDE": "39.4816537", "LONGITUDE": "-106.0383518", "qwi_geography": "0814720", "industry": {"total": 14399, "1": {"name": "Food Services and Drinking Places", "emp": 2470.75}, "2": {"name": "Accommodation", "emp": 2371.25}, "3": {"name": "Amusement, Gambling, and Recreation Industries", "emp": 877.25}}}, {"FEATURE2": "County Seat", "NAME": "Colorado Springs", "POP_2010": "416427", "STATE_FIPS": "8", "LATITUDE": "38.8338816", "LONGITUDE": "-104.8213634", "qwi_geography": "0817820", "industry": {"total": 221815.75, "1": {"name": "Educational Services", "emp": 23270.25}, "2": {"name": "Professional, Scientific, and Technical Services", "emp": 21543.5}, "3": {"name": "Food Services and Drinking Places", "emp": 17132.5}}}, {"FEATURE2": "County Seat", "NAME": "Craig", "POP_2010": "9464", "STATE_FIPS": "8", "LATITUDE": "40.5152491", "LONGITUDE": "-107.5464541", "qwi_geography": "0818780", "industry": {"total": 3605.5, "1": {"name": "Utilities", "emp": 481.5}, "2": {"name": "Executive, Legislative, and Other General Government Support", "emp": 287.5}, "3": {"name": "Educational Services", "emp": 269.75}}}, {"FEATURE2": "State Capital County Seat", "NAME": "Denver", "POP_2010": "600158", "STATE_FIPS": "8", "LATITUDE": "39.7391536", "LONGITUDE": "-104.9847034", "qwi_geography": "0819740", "industry": {"total": 1218545.75, "1": {"name": "Professional, Scientific, and Technical Services", "emp": 121860.5}, "2": {"name": "Food Services and Drinking Places", "emp": 89753}, "3": {"name": "Educational Services", "emp": 82912}}}, {"FEATURE2": "County Seat", "NAME": "Durango", "POP_2010": "16887", "STATE_FIPS": "8", "LATITUDE": "37.27528", "LONGITUDE": "-107.8800667", "qwi_geography": "0820420", "industry": {"total": 21493.5, "1": {"name": "Educational Services", "emp": 1915.5}, "2": {"name": "Executive, Legislative, and Other General Government Support", "emp": 1874}, "3": {"name": "Food Services and Drinking Places", "emp": 1834.25}}}, {"FEATURE2": "-999", "NAME": "Edwards", "POP_2010": "10266", "STATE_FIPS": "8", "LATITUDE": "39.644986", "LONGITUDE": "-106.5942", "qwi_geography": "0820780", "industry": {"total": 23832.75, "1": {"name": "Food Services and Drinking Places", "emp": 2961.25}, "2": {"name": "Accommodation", "emp": 2644}, "3": {"name": "Amusement, Gambling, and Recreation Industries", "emp": 2413.75}}}, {"FEATURE2": "County Seat", "NAME": "Fort Collins", "POP_2010": "143986", "STATE_FIPS": "8", "LATITUDE": "40.5852602", "LONGITUDE": "-105.084423", "qwi_geography": "0822660", "industry": {"total": 122735.75, "1": {"name": "Educational Services", "emp": 14380.25}, "2": {"name": "Food Services and Drinking Places", "emp": 10662.5}, "3": {"name": "Professional, Scientific, and Technical Services", "emp": 9804.5}}}, {"FEATURE2": "County Seat", "NAME": "Fort Morgan", "POP_2010": "11315", "STATE_FIPS": "8", "LATITUDE": "40.2502582", "LONGITUDE": "-103.799951", "qwi_geography": "0822820", "industry": {"total": 10227.5, "1": {"name": "Food Manufacturing", "emp": 2884.25}, "2": {"name": "Educational Services", "emp": 904.75}, "3": {"name": "Food Services and Drinking Places", "emp": 578.75}}}, {"FEATURE2": "County Seat", "NAME": "Glenwood Springs", "POP_2010": "9614", "STATE_FIPS": "8", "LATITUDE": "39.5505376", "LONGITUDE": "-107.3247762", "qwi_geography": "0824060", "industry": {"total": 32475.25, "1": {"name": "Food Services and Drinking Places", "emp": 3280}, "2": {"name": "Educational Services", "emp": 3241.25}, "3": {"name": "Specialty Trade Contractors", "emp": 2187.25}}}, {"FEATURE2": "County Seat", "NAME": "Grand Junction", "POP_2010": "58566", "STATE_FIPS": "8", "LATITUDE": "39.0638705", "LONGITUDE": "-108.5506486", "qwi_geography": "0824300", "industry": {"total": 50705, "1": {"name": "Food Services and Drinking Places", "emp": 4572.75}, "2": {"name": "Educational Services", "emp": 4183.75}, "3": {"name": "Hospitals", "emp": 3730.5}}}, {"FEATURE2": "County Seat", "NAME": "Greeley", "POP_2010": "92889", "STATE_FIPS": "8", "LATITUDE": "40.4233142", "LONGITUDE": "-104.7091322", "qwi_geography": "0824540", "industry": {"total": 84448.25, "1": {"name": "Educational Services", "emp": 7872.25}, "2": {"name": "Food Services and Drinking Places", "emp": 5280.5}, "3": {"name": "Food Manufacturing", "emp": 5083.25}}}, {"FEATURE2": "County Seat", "NAME": "Montrose", "POP_2010": "19132", "STATE_FIPS": "8", "LATITUDE": "38.4783198", "LONGITUDE": "-107.8761738", "qwi_geography": "0833940", "industry": {"total": 11298.5, "1": {"name": "Educational Services", "emp": 976.5}, "2": {"name": "Food Services and Drinking Places", "emp": 818.5}, "3": {"name": "Ambulatory Health Care Services", "emp": 771.25}}}, {"FEATURE2": "County Seat", "NAME": "Pueblo", "POP_2010": "106595", "STATE_FIPS": "8", "LATITUDE": "38.2544472", "LONGITUDE": "-104.609141", "qwi_geography": "0839380", "industry": {"total": 46937.5, "1": {"name": "Hospitals", "emp": 4655.75}, "2": {"name": "Food Services and Drinking Places", "emp": 3758.25}, "3": {"name": "Ambulatory Health Care Services", "emp": 3603.5}}}, {"FEATURE2": "County Seat", "NAME": "Steamboat Springs", "POP_2010": "12088", "STATE_FIPS": "8", "LATITUDE": "40.4849769", "LONGITUDE": "-106.8317158", "qwi_geography": "0844460", "industry": {"total": 11502.25, "1": {"name": "Food Services and Drinking Places", "emp": 1201}, "2": {"name": "Amusement, Gambling, and Recreation Industries", "emp": 1072.75}, "3": {"name": "Educational Services", "emp": 837.25}}}, {"FEATURE2": "County Seat", "NAME": "Sterling", "POP_2010": "14777", "STATE_FIPS": "8", "LATITUDE": "40.6255415", "LONGITUDE": "-103.207709", "qwi_geography": "0844540", "industry": {"total": 6326.75, "1": {"name": "Justice, Public Order, and Safety Activities", "emp": 672}, "2": {"name": "Food Services and Drinking Places", "emp": 528.75}, "3": {"name": "Educational Services", "emp": 457}}}, {"FEATURE2": "-999", "NAME": "Bridgeport", "POP_2010": "144229", "STATE_FIPS": "9", "LATITUDE": "41.1670412", "LONGITUDE": "-73.2048348", "qwi_geography": "0914860", "industry": {"total": 388897.5, "1": {"name": "Educational Services", "emp": 35248}, "2": {"name": "Professional, Scientific, and Technical Services", "emp": 32259.25}, "3": {"name": "Food Services and Drinking Places", "emp": 23833.75}}}, {"FEATURE2": "State Capital", "NAME": "Hartford", "POP_2010": "124775", "STATE_FIPS": "9", "LATITUDE": "41.7637111", "LONGITUDE": "-72.6850932", "qwi_geography": "0925540", "industry": {"total": 575059, "1": {"name": "Educational Services", "emp": 51697.75}, "2": {"name": "Insurance Carriers and Related Activities", "emp": 43231.5}, "3": {"name": "Professional, Scientific, and Technical Services", "emp": 34633.75}}}, {"FEATURE2": "County Seat", "NAME": "New Haven", "POP_2010": "129779", "STATE_FIPS": "9", "LATITUDE": "41.3081527", "LONGITUDE": "-72.9281578", "qwi_geography": "0935300", "industry": {"total": 313635.5, "1": {"name": "Ambulatory Health Care Services", "emp": 21175}, "2": {"name": "Food Services and Drinking Places", "emp": 20865.5}, "3": {"name": "Hospitals", "emp": 16024}}}, {"FEATURE2": "-999", "NAME": "Norwich", "POP_2010": "40493", "STATE_FIPS": "9", "LATITUDE": "41.5242649", "LONGITUDE": "-72.0759105", "qwi_geography": "0935980", "industry": {"total": 105696, "1": {"name": "Amusement, Gambling, and Recreation Industries", "emp": 11893}, "2": {"name": "Transportation Equipment Manufacturing", "emp": 11788.5}, "3": {"name": "Educational Services", "emp": 9012.75}}}, {"FEATURE2": "-999", "NAME": "Torrington", "POP_2010": "36383", "STATE_FIPS": "9", "LATITUDE": "41.8006523", "LONGITUDE": "-73.1212214", "qwi_geography": "0945860", "industry": {"total": 52877.75, "1": {"name": "Educational Services", "emp": 6414.75}, "2": {"name": "Food Services and Drinking Places", "emp": 3524}, "3": {"name": "Nursing and Residential Care Facilities", "emp": 3244.5}}}, {"FEATURE2": "National Capital", "NAME": "Washington", "POP_2010": "601723", "STATE_FIPS": "11", "LATITUDE": "38.8951118", "LONGITUDE": "-77.0363658", "qwi_geography": "1147900", "industry": {"total": 493004, "1": {"name": "Professional, Scientific, and Technical Services", "emp": 103476.75}, "2": {"name": "Educational Services", "emp": 51875.75}, "3": {"name": "Religious, Grantmaking, Civic, Professional, and Similar Organizations", "emp": 51797.5}}}, {"FEATURE2": "County Seat", "NAME": "Arcadia", "POP_2010": "7637", "STATE_FIPS": "12", "LATITUDE": "27.2158826", "LONGITUDE": "-81.8584164", "qwi_geography": "1211580", "industry": {"total": 7025.5, "1": {"name": "Educational Services", "emp": 738.5}, "2": {"name": "Warehousing and Storage", "emp": 597.75}, "3": {"name": "Justice, Public Order, and Safety Activities", "emp": 514.5}}}, {"FEATURE2": "-999", "NAME": "Cape Coral", "POP_2010": "154305", "STATE_FIPS": "12", "LATITUDE": "26.5628537", "LONGITUDE": "-81.9495331", "qwi_geography": "1215980", "industry": {"total": 206406.5, "1": {"name": "Food Services and Drinking Places", "emp": 20866.25}, "2": {"name": "Specialty Trade Contractors", "emp": 14689}, "3": {"name": "Educational Services", "emp": 14582}}}, {"FEATURE2": "-999", "NAME": "Clewiston", "POP_2010": "7155", "STATE_FIPS": "12", "LATITUDE": "26.7542312", "LONGITUDE": "-80.9336753", "qwi_geography": "1217500", "industry": {"total": 9384.5, "1": {"name": "Crop Production", "emp": 2304.75}, "2": {"name": "Educational Services", "emp": 1004.75}, "3": {"name": "Food Services and Drinking Places", "emp": 602.5}}}, {"FEATURE2": "County Seat", "NAME": "Crestview", "POP_2010": "20978", "STATE_FIPS": "12", "LATITUDE": "30.7621326", "LONGITUDE": "-86.5705084", "qwi_geography": "1218880", "industry": {"total": 91153, "1": {"name": "Food Services and Drinking Places", "emp": 13867.5}, "2": {"name": "Professional, Scientific, and Technical Services", "emp": 8286.5}, "3": {"name": "Educational Services", "emp": 6653}}}, {"FEATURE2": "-999", "NAME": "Deltona", "POP_2010": "85182", "STATE_FIPS": "12", "LATITUDE": "28.9005446", "LONGITUDE": "-81.2636738", "qwi_geography": "1219660", "industry": {"total": 160771.75, "1": {"name": "Food Services and Drinking Places", "emp": 17755.75}, "2": {"name": "Educational Services", "emp": 14544.5}, "3": {"name": "Administrative and Support Services", "emp": 11027.25}}}, {"FEATURE2": "County Seat", "NAME": "Gainesville", "POP_2010": "124354", "STATE_FIPS": "12", "LATITUDE": "29.6516344", "LONGITUDE": "-82.3248262", "qwi_geography": "1223540", "industry": {"total": 108848.25, "1": {"name": "Educational Services", "emp": 22658}, "2": {"name": "Hospitals", "emp": 10316.5}, "3": {"name": "Food Services and Drinking Places", "emp": 9372}}}, {"FEATURE2": "-999", "NAME": "Homosassa Springs", "POP_2010": "13791", "STATE_FIPS": "12", "LATITUDE": "28.8035939", "LONGITUDE": "-82.5759329", "qwi_geography": "1226140", "industry": {"total": 27575.5, "1": {"name": "Ambulatory Health Care Services", "emp": 2673}, "2": {"name": "Educational Services", "emp": 2514}, "3": {"name": "Food Services and Drinking Places", "emp": 2445.5}}}, {"FEATURE2": "County Seat", "NAME": "Jacksonville", "POP_2010": "821784", "STATE_FIPS": "12", "LATITUDE": "30.3321838", "LONGITUDE": "-81.655651", "qwi_geography": "1227260", "industry": {"total": 581449.75, "1": {"name": "Food Services and Drinking Places", "emp": 49161.75}, "2": {"name": "Administrative and Support Services", "emp": 43096.25}, "3": {"name": "Educational Services", "emp": 40952.5}}}, {"FEATURE2": "County Seat", "NAME": "Key West", "POP_2010": "24649", "STATE_FIPS": "12", "LATITUDE": "24.5557025", "LONGITUDE": "-81.7825914", "qwi_geography": "1228580", "industry": {"total": 31095.25, "1": {"name": "Food Services and Drinking Places", "emp": 5784}, "2": {"name": "Accommodation", "emp": 4989.25}, "3": {"name": "Administrative and Support Services", "emp": 1511.25}}}, {"FEATURE2": "County Seat", "NAME": "Lake City", "POP_2010": "12046", "STATE_FIPS": "12", "LATITUDE": "30.1896756", "LONGITUDE": "-82.6392899", "qwi_geography": "1229380", "industry": {"total": 19366.75, "1": {"name": "Administrative and Support Services", "emp": 2049.25}, "2": {"name": "Food Services and Drinking Places", "emp": 1790.5}, "3": {"name": "Educational Services", "emp": 1601.5}}}, {"FEATURE2": "-999", "NAME": "Lakeland", "POP_2010": "97422", "STATE_FIPS": "12", "LATITUDE": "28.0394654", "LONGITUDE": "-81.9498042", "qwi_geography": "1229460", "industry": {"total": 195808.5, "1": {"name": "Educational Services", "emp": 18122.5}, "2": {"name": "Food Services and Drinking Places", "emp": 13309}, "3": {"name": "Administrative and Support Services", "emp": 10972}}}, {"FEATURE2": "County Seat", "NAME": "Miami", "POP_2010": "399457", "STATE_FIPS": "12", "LATITUDE": "25.7742658", "LONGITUDE": "-80.1936589", "qwi_geography": "1233100", "industry": {"total": 2208314.5, "1": {"name": "Food Services and Drinking Places", "emp": 179353}, "2": {"name": "Administrative and Support Services", "emp": 165262}, "3": {"name": "Educational Services", "emp": 160011.75}}}, {"FEATURE2": "County Seat", "NAME": "Naples", "POP_2010": "19537", "STATE_FIPS": "12", "LATITUDE": "26.1420358", "LONGITUDE": "-81.7948103", "qwi_geography": "1234940", "industry": {"total": 115313.75, "1": {"name": "Food Services and Drinking Places", "emp": 12040}, "2": {"name": "Specialty Trade Contractors", "emp": 8385}, "3": {"name": "Educational Services", "emp": 7953}}}, {"FEATURE2": "-999", "NAME": "North Port", "POP_2010": "57357", "STATE_FIPS": "12", "LATITUDE": "27.044224", "LONGITUDE": "-82.2359254", "qwi_geography": "1235840", "industry": {"total": 236377, "1": {"name": "Food Services and Drinking Places", "emp": 22304.75}, "2": {"name": "Ambulatory Health Care Services", "emp": 16988.75}, "3": {"name": "Educational Services", "emp": 16420.75}}}, {"FEATURE2": "County Seat", "NAME": "Ocala", "POP_2010": "56315", "STATE_FIPS": "12", "LATITUDE": "29.1871986", "LONGITUDE": "-82.1400923", "qwi_geography": "1236100", "industry": {"total": 86328.5, "1": {"name": "Educational Services", "emp": 8846}, "2": {"name": "Food Services and Drinking Places", "emp": 6992.5}, "3": {"name": "Ambulatory Health Care Services", "emp": 6970.75}}}, {"FEATURE2": "County Seat", "NAME": "Okeechobee", "POP_2010": "5621", "STATE_FIPS": "12", "LATITUDE": "27.2439349", "LONGITUDE": "-80.8297828", "qwi_geography": "1236380", "industry": {"total": 9435.75, "1": {"name": "Food Services and Drinking Places", "emp": 813.75}, "2": {"name": "Educational Services", "emp": 742.75}, "3": {"name": "Ambulatory Health Care Services", "emp": 553.25}}}, {"FEATURE2": "County Seat", "NAME": "Orlando", "POP_2010": "238300", "STATE_FIPS": "12", "LATITUDE": "28.5383355", "LONGITUDE": "-81.3792365", "qwi_geography": "1236740", "industry": {"total": 1066056.25, "1": {"name": "Food Services and Drinking Places", "emp": 89579.25}, "2": {"name": "Administrative and Support Services", "emp": 87291}, "3": {"name": "Amusement, Gambling, and Recreation Industries", "emp": 75298.5}}}, {"FEATURE2": "County Seat", "NAME": "Palatka", "POP_2010": "10558", "STATE_FIPS": "12", "LATITUDE": "29.6485801", "LONGITUDE": "-81.6375819", "qwi_geography": "1237260", "industry": {"total": 14186.5, "1": {"name": "Educational Services", "emp": 1984.75}, "2": {"name": "Food Services and Drinking Places", "emp": 1042}, "3": {"name": "Paper Manufacturing", "emp": 1040.25}}}, {"FEATURE2": "-999", "NAME": "Palm Bay", "POP_2010": "103190", "STATE_FIPS": "12", "LATITUDE": "28.0344621", "LONGITUDE": "-80.5886646", "qwi_geography": "1237340", "industry": {"total": 171128.75, "1": {"name": "Food Services and Drinking Places", "emp": 15317.75}, "2": {"name": "Educational Services", "emp": 14945}, "3": {"name": "Ambulatory Health Care Services", "emp": 12442.75}}}, {"FEATURE2": "County Seat", "NAME": "Panama City", "POP_2010": "36484", "STATE_FIPS": "12", "LATITUDE": "30.1588129", "LONGITUDE": "-85.6602058", "qwi_geography": "1237460", "industry": {"total": 67059, "1": {"name": "Food Services and Drinking Places", "emp": 8213.75}, "2": {"name": "Educational Services", "emp": 5040}, "3": {"name": "Administrative and Support Services", "emp": 4262.5}}}, {"FEATURE2": "County Seat", "NAME": "Pensacola", "POP_2010": "51923", "STATE_FIPS": "12", "LATITUDE": "30.421309", "LONGITUDE": "-87.2169149", "qwi_geography": "1237860", "industry": {"total": 155272, "1": {"name": "Food Services and Drinking Places", "emp": 17184.5}, "2": {"name": "Educational Services", "emp": 12380.25}, "3": {"name": "Administrative and Support Services", "emp": 10009.5}}}, {"FEATURE2": "County Seat", "NAME": "Punta Gorda", "POP_2010": "16641", "STATE_FIPS": "12", "LATITUDE": "26.9297836", "LONGITUDE": "-82.0453664", "qwi_geography": "1239460", "industry": {"total": 39689, "1": {"name": "Food Services and Drinking Places", "emp": 4374}, "2": {"name": "Ambulatory Health Care Services", "emp": 3553}, "3": {"name": "Administrative and Support Services", "emp": 2674.5}}}, {"FEATURE2": "-999", "NAME": "Sebastian", "POP_2010": "21929", "STATE_FIPS": "12", "LATITUDE": "27.816415", "LONGITUDE": "-80.4706078", "qwi_geography": "1242680", "industry": {"total": 40800.75, "1": {"name": "Food Services and Drinking Places", "emp": 3418.5}, "2": {"name": "Ambulatory Health Care Services", "emp": 3206.5}, "3": {"name": "Educational Services", "emp": 2519.75}}}, {"FEATURE2": "County Seat", "NAME": "Sebring", "POP_2010": "10491", "STATE_FIPS": "12", "LATITUDE": "27.495592", "LONGITUDE": "-81.440907", "qwi_geography": "1242700", "industry": {"total": 20301.5, "1": {"name": "Food Services and Drinking Places", "emp": 1727.75}, "2": {"name": "Hospitals", "emp": 1677}, "3": {"name": "Ambulatory Health Care Services", "emp": 1501}}}, {"FEATURE2": "State Capital County Seat", "NAME": "Tallahassee", "POP_2010": "181376", "STATE_FIPS": "12", "LATITUDE": "30.4382559", "LONGITUDE": "-84.2807329", "qwi_geography": "1245220", "industry": {"total": 150060.75, "1": {"name": "Educational Services", "emp": 17580.25}, "2": {"name": "Food Services and Drinking Places", "emp": 11962.25}, "3": {"name": "Professional, Scientific, and Technical Services", "emp": 10396}}}, {"FEATURE2": "County Seat", "NAME": "Tampa", "POP_2010": "335709", "STATE_FIPS": "12", "LATITUDE": "27.9475216", "LONGITUDE": "-82.4584279", "qwi_geography": "1245300", "industry": {"total": 1118793.5, "1": {"name": "Professional, Scientific, and Technical Services", "emp": 92198}, "2": {"name": "Food Services and Drinking Places", "emp": 86688.25}, "3": {"name": "Educational Services", "emp": 81741.25}}}, {"FEATURE2": "-999", "NAME": "The Villages", "POP_2010": "51442", "STATE_FIPS": "12", "LATITUDE": "28.934084", "LONGITUDE": "-81.959943", "qwi_geography": "1245540", "industry": {"total": 21621, "1": {"name": "Food Services and Drinking Places", "emp": 2505.5}, "2": {"name": "Ambulatory Health Care Services", "emp": 1735.25}, "3": {"name": "Specialty Trade Contractors", "emp": 1596.25}}}, {"FEATURE2": "County Seat", "NAME": "Wauchula", "POP_2010": "5001", "STATE_FIPS": "12", "LATITUDE": "27.5472589", "LONGITUDE": "-81.8114715", "qwi_geography": "1248100", "industry": {"total": 5740.5, "1": {"name": "Educational Services", "emp": 787.25}, "2": {"name": "Crop Production", "emp": 476.25}, "3": {"name": "Nursing and Residential Care Facilities", "emp": 458.25}}}, {"FEATURE2": "County Seat", "NAME": "Albany", "POP_2010": "77434", "STATE_FIPS": "13", "LATITUDE": "31.5785074", "LONGITUDE": "-84.155741", "qwi_geography": "1310500", "industry": {"total": 48997, "1": {"name": "Educational Services", "emp": 5913.25}, "2": {"name": "Ambulatory Health Care Services", "emp": 4245.25}, "3": {"name": "Food Services and Drinking Places", "emp": 3740.25}}}, {"FEATURE2": "County Seat", "NAME": "Americus", "POP_2010": "17041", "STATE_FIPS": "13", "LATITUDE": "32.0723862", "LONGITUDE": "-84.2326876", "qwi_geography": "1311140", "industry": {"total": 9431.75, "1": {"name": "Educational Services", "emp": 1678}, "2": {"name": "Nursing and Residential Care Facilities", "emp": 585.25}, "3": {"name": "Food Services and Drinking Places", "emp": 556.25}}}, {"FEATURE2": "County Seat", "NAME": "Athens", "POP_2010": "-999", "STATE_FIPS": "13", "LATITUDE": "33.960948", "LONGITUDE": "-83.3779358", "qwi_geography": "1312020", "industry": {"total": 75137.75, "1": {"name": "Educational Services", "emp": 18255.25}, "2": {"name": "Food Services and Drinking Places", "emp": 6371}, "3": {"name": "Ambulatory Health Care Services", "emp": 5176.5}}}, {"FEATURE2": "State Capital County Seat", "NAME": "Atlanta", "POP_2010": "420003", "STATE_FIPS": "13", "LATITUDE": "33.7489954", "LONGITUDE": "-84.3879824", "qwi_geography": "1312060", "industry": {"total": 2246778, "1": {"name": "Educational Services", "emp": 191923.75}, "2": {"name": "Professional, Scientific, and Technical Services", "emp": 184604.25}, "3": {"name": "Food Services and Drinking Places", "emp": 170059.5}}}, {"FEATURE2": "County Seat", "NAME": "Augusta", "POP_2010": "-999", "STATE_FIPS": "13", "LATITUDE": "33.4709702", "LONGITUDE": "-81.9748379", "qwi_geography": "1312260", "industry": {"total": 128068.5, "1": {"name": "Educational Services", "emp": 16344.5}, "2": {"name": "Food Services and Drinking Places", "emp": 10906.75}, "3": {"name": "Administrative and Support Services", "emp": 9582.5}}}, {"FEATURE2": "County Seat", "NAME": "Bainbridge", "POP_2010": "12697", "STATE_FIPS": "13", "LATITUDE": "30.9037995", "LONGITUDE": "-84.5754699", "qwi_geography": "1312460", "industry": {"total": 7085, "1": {"name": "Educational Services", "emp": 1076}, "2": {"name": "Executive, Legislative, and Other General Government Support", "emp": 396}, "3": {"name": "Food Services and Drinking Places", "emp": 369.75}}}, {"FEATURE2": "County Seat", "NAME": "Brunswick", "POP_2010": "15383", "STATE_FIPS": "13", "LATITUDE": "31.1499528", "LONGITUDE": "-81.4914894", "qwi_geography": "1315260", "industry": {"total": 33343.5, "1": {"name": "Food Services and Drinking Places", "emp": 3969.5}, "2": {"name": "Educational Services", "emp": 3269.25}, "3": {"name": "Accommodation", "emp": 2108}}}, {"FEATURE2": "County Seat", "NAME": "Calhoun", "POP_2010": "15650", "STATE_FIPS": "13", "LATITUDE": "34.502587", "LONGITUDE": "-84.9510542", "qwi_geography": "1315660", "industry": {"total": 17448.5, "1": {"name": "Textile Product Mills", "emp": 3135.5}, "2": {"name": "Educational Services", "emp": 1247.25}, "3": {"name": "Food Services and Drinking Places", "emp": 1006.75}}}, {"FEATURE2": "County Seat", "NAME": "Cedartown", "POP_2010": "9750", "STATE_FIPS": "13", "LATITUDE": "34.0095476037", "LONGITUDE": "-85.2494315505", "qwi_geography": "1316340", "industry": {"total": 9338.5, "1": {"name": "Educational Services", "emp": 926.5}, "2": {"name": "Food Services and Drinking Places", "emp": 770.75}, "3": {"name": "Furniture and Related Product Manufacturing", "emp": 652.25}}}, {"FEATURE2": "County Seat", "NAME": "Columbus", "POP_2010": "189885", "STATE_FIPS": "13", "LATITUDE": "32.4609764", "LONGITUDE": "-84.9877094", "qwi_geography": "1317980", "industry": {"total": 82106, "1": {"name": "Food Services and Drinking Places", "emp": 7872.5}, "2": {"name": "Educational Services", "emp": 6999.75}, "3": {"name": "Credit Intermediation and Related Activities", "emp": 6826.5}}}, {"FEATURE2": "County Seat", "NAME": "Cordele", "POP_2010": "11147", "STATE_FIPS": "13", "LATITUDE": "31.9635074", "LONGITUDE": "-83.7823938", "qwi_geography": "1318380", "industry": {"total": 6857.75, "1": {"name": "Educational Services", "emp": 848}, "2": {"name": "Food Services and Drinking Places", "emp": 670.5}, "3": {"name": "Ambulatory Health Care Services", "emp": 462.25}}}, {"FEATURE2": "-999", "NAME": "Cornelia", "POP_2010": "4160", "STATE_FIPS": "13", "LATITUDE": "34.5114883", "LONGITUDE": "-83.5271166", "qwi_geography": "1318460", "industry": {"total": 12401, "1": {"name": "Educational Services", "emp": 1610}, "2": {"name": "Food Manufacturing", "emp": 1176}, "3": {"name": "Food Services and Drinking Places", "emp": 1075.25}}}, {"FEATURE2": "County Seat", "NAME": "Dalton", "POP_2010": "33128", "STATE_FIPS": "13", "LATITUDE": "34.7698021", "LONGITUDE": "-84.9702228", "qwi_geography": "1319140", "industry": {"total": 60444.5, "1": {"name": "Textile Product Mills", "emp": 15700.5}, "2": {"name": "Educational Services", "emp": 3897.5}, "3": {"name": "Textile Mills", "emp": 3668.25}}}, {"FEATURE2": "County Seat", "NAME": "Douglas", "POP_2010": "11589", "STATE_FIPS": "13", "LATITUDE": "31.5088073", "LONGITUDE": "-82.8498654", "qwi_geography": "1320060", "industry": {"total": 14393.75, "1": {"name": "Educational Services", "emp": 1228.75}, "2": {"name": "Warehousing and Storage", "emp": 990}, "3": {"name": "Administrative and Support Services", "emp": 967.5}}}, {"FEATURE2": "County Seat", "NAME": "Dublin", "POP_2010": "16201", "STATE_FIPS": "13", "LATITUDE": "32.5404447", "LONGITUDE": "-82.903754", "qwi_geography": "1320140", "industry": {"total": 16705.75, "1": {"name": "Administrative and Support Services", "emp": 1876}, "2": {"name": "Educational Services", "emp": 1285}, "3": {"name": "Ambulatory Health Care Services", "emp": 1174.75}}}, {"FEATURE2": "County Seat", "NAME": "Fitzgerald", "POP_2010": "9053", "STATE_FIPS": "13", "LATITUDE": "31.7149082", "LONGITUDE": "-83.2526545", "qwi_geography": "1322340", "industry": {"total": 4724.5, "1": {"name": "Educational Services", "emp": 479.25}, "2": {"name": "Administrative and Support Services", "emp": 351.5}, "3": {"name": "Wood Product Manufacturing", "emp": 342.75}}}, {"FEATURE2": "County Seat", "NAME": "Gainesville", "POP_2010": "33804", "STATE_FIPS": "13", "LATITUDE": "34.2978794", "LONGITUDE": "-83.8240663", "qwi_geography": "1323580", "industry": {"total": 73072.25, "1": {"name": "Food Manufacturing", "emp": 8912}, "2": {"name": "Hospitals", "emp": 6110.5}, "3": {"name": "Educational Services", "emp": 5515.5}}}, {"FEATURE2": "County Seat", "NAME": "Hinesville", "POP_2010": "33437", "STATE_FIPS": "13", "LATITUDE": "31.846877", "LONGITUDE": "-81.5959453", "qwi_geography": "1325980", "industry": {"total": 12066.25, "1": {"name": "Educational Services", "emp": 1789.75}, "2": {"name": "Food Services and Drinking Places", "emp": 1144.5}, "3": {"name": "Executive, Legislative, and Other General Government Support", "emp": 773.25}}}, {"FEATURE2": "County Seat", "NAME": "Jefferson", "POP_2010": "9432", "STATE_FIPS": "13", "LATITUDE": "34.1170537", "LONGITUDE": "-83.5723876", "qwi_geography": "1327600", "industry": {"total": 20932.75, "1": {"name": "Warehousing and Storage", "emp": 1837}, "2": {"name": "Educational Services", "emp": 1611.75}, "3": {"name": "Merchant Wholesalers, Nondurable Goods", "emp": 1473.25}}}, {"FEATURE2": "County Seat", "NAME": "Jesup", "POP_2010": "10214", "STATE_FIPS": "13", "LATITUDE": "31.6074365", "LONGITUDE": "-81.8853924", "qwi_geography": "1327700", "industry": {"total": 6403.25, "1": {"name": "Paper Manufacturing", "emp": 863}, "2": {"name": "Educational Services", "emp": 660}, "3": {"name": "Food Services and Drinking Places", "emp": 457}}}, {"FEATURE2": "County Seat", "NAME": "LaGrange", "POP_2010": "29588", "STATE_FIPS": "13", "LATITUDE": "33.039291", "LONGITUDE": "-85.0313269", "qwi_geography": "1329300", "industry": {"total": 33477.75, "1": {"name": "Transportation Equipment Manufacturing", "emp": 5820.75}, "2": {"name": "Administrative and Support Services", "emp": 3485}, "3": {"name": "Textile Product Mills", "emp": 2649.75}}}, {"FEATURE2": "County Seat", "NAME": "Macon", "POP_2010": "91351", "STATE_FIPS": "13", "LATITUDE": "32.8406946", "LONGITUDE": "-83.6324022", "qwi_geography": "1331420", "industry": {"total": 89122.5, "1": {"name": "Educational Services", "emp": 8676}, "2": {"name": "Hospitals", "emp": 6667.25}, "3": {"name": "Insurance Carriers and Related Activities", "emp": 6658.25}}}, {"FEATURE2": "County Seat", "NAME": "Milledgeville", "POP_2010": "17715", "STATE_FIPS": "13", "LATITUDE": "33.0801429", "LONGITUDE": "-83.2320991", "qwi_geography": "1333300", "industry": {"total": 13820.25, "1": {"name": "Educational Services", "emp": 2618.5}, "2": {"name": "Food Services and Drinking Places", "emp": 1220.75}, "3": {"name": "Justice, Public Order, and Safety Activities", "emp": 1003.75}}}, {"FEATURE2": "County Seat", "NAME": "Moultrie", "POP_2010": "14268", "STATE_FIPS": "13", "LATITUDE": "31.179908", "LONGITUDE": "-83.7890631", "qwi_geography": "1334220", "industry": {"total": 12797.5, "1": {"name": "Educational Services", "emp": 1913.25}, "2": {"name": "Food Manufacturing", "emp": 1773.75}, "3": {"name": "Food Services and Drinking Places", "emp": 679}}}, {"FEATURE2": "County Seat", "NAME": "Rome", "POP_2010": "36303", "STATE_FIPS": "13", "LATITUDE": "34.257038", "LONGITUDE": "-85.1646726", "qwi_geography": "1340660", "industry": {"total": 31905.75, "1": {"name": "Hospitals", "emp": 3458}, "2": {"name": "Educational Services", "emp": 3410.5}, "3": {"name": "Food Services and Drinking Places", "emp": 2554}}}, {"FEATURE2": "County Seat", "NAME": "Savannah", "POP_2010": "136286", "STATE_FIPS": "13", "LATITUDE": "32.0835407", "LONGITUDE": "-81.0998342", "qwi_geography": "1342340", "industry": {"total": 137203, "1": {"name": "Food Services and Drinking Places", "emp": 13992.5}, "2": {"name": "Educational Services", "emp": 12014}, "3": {"name": "Administrative and Support Services", "emp": 8295.75}}}, {"FEATURE2": "County Seat", "NAME": "Statesboro", "POP_2010": "28422", "STATE_FIPS": "13", "LATITUDE": "32.4487877", "LONGITUDE": "-81.7831674", "qwi_geography": "1344340", "industry": {"total": 20698.5, "1": {"name": "Educational Services", "emp": 3926}, "2": {"name": "Food Services and Drinking Places", "emp": 2070.5}, "3": {"name": "Ambulatory Health Care Services", "emp": 1702.5}}}, {"FEATURE2": "County Seat", "NAME": "Summerville", "POP_2010": "4534", "STATE_FIPS": "13", "LATITUDE": "34.480642", "LONGITUDE": "-85.3477343", "qwi_geography": "1344900", "industry": {"total": 5389, "1": {"name": "Textile Mills", "emp": 1457.25}, "2": {"name": "Educational Services", "emp": 510.5}, "3": {"name": "Executive, Legislative, and Other General Government Support", "emp": 305.25}}}, {"FEATURE2": "County Seat", "NAME": "Thomaston", "POP_2010": "9170", "STATE_FIPS": "13", "LATITUDE": "32.8881879", "LONGITUDE": "-84.3265855", "qwi_geography": "1345580", "industry": {"total": 5955.25, "1": {"name": "Food Services and Drinking Places", "emp": 448.25}, "2": {"name": "Textile Mills", "emp": 430.5}, "3": {"name": "Educational Services", "emp": 404.25}}}, {"FEATURE2": "County Seat", "NAME": "Thomasville", "POP_2010": "18413", "STATE_FIPS": "13", "LATITUDE": "30.8365815", "LONGITUDE": "-83.9787808", "qwi_geography": "1345620", "industry": {"total": 18264.25, "1": {"name": "Hospitals", "emp": 2095.5}, "2": {"name": "Administrative and Support Services", "emp": 2031.25}, "3": {"name": "Educational Services", "emp": 1636.75}}}, {"FEATURE2": "County Seat", "NAME": "Tifton", "POP_2010": "16350", "STATE_FIPS": "13", "LATITUDE": "31.4504629", "LONGITUDE": "-83.5084973", "qwi_geography": "1345700", "industry": {"total": 16392.5, "1": {"name": "Educational Services", "emp": 2055.75}, "2": {"name": "Food Services and Drinking Places", "emp": 1550.75}, "3": {"name": "Ambulatory Health Care Services", "emp": 1028.25}}}, {"FEATURE2": "County Seat", "NAME": "Toccoa", "POP_2010": "8491", "STATE_FIPS": "13", "LATITUDE": "34.5773206", "LONGITUDE": "-83.3323851", "qwi_geography": "1345740", "industry": {"total": 7597.75, "1": {"name": "Educational Services", "emp": 623}, "2": {"name": "Machinery Manufacturing", "emp": 570.25}, "3": {"name": "Furniture and Related Product Manufacturing", "emp": 559}}}, {"FEATURE2": "County Seat", "NAME": "Valdosta", "POP_2010": "54518", "STATE_FIPS": "13", "LATITUDE": "30.8327022", "LONGITUDE": "-83.2784851", "qwi_geography": "1346660", "industry": {"total": 44907.25, "1": {"name": "Educational Services", "emp": 5050.25}, "2": {"name": "Food Services and Drinking Places", "emp": 4478.75}, "3": {"name": "Ambulatory Health Care Services", "emp": 3007.75}}}, {"FEATURE2": "-999", "NAME": "Vidalia", "POP_2010": "10473", "STATE_FIPS": "13", "LATITUDE": "32.2176855", "LONGITUDE": "-82.4134614", "qwi_geography": "1347080", "industry": {"total": 11951, "1": {"name": "Educational Services", "emp": 1429}, "2": {"name": "Administrative and Support Services", "emp": 1045.5}, "3": {"name": "Food Services and Drinking Places", "emp": 803.5}}}, {"FEATURE2": "-999", "NAME": "Warner Robins", "POP_2010": "66588", "STATE_FIPS": "13", "LATITUDE": "32.6209775", "LONGITUDE": "-83.5999048", "qwi_geography": "1347580", "industry": {"total": 47927, "1": {"name": "Educational Services", "emp": 5734.25}, "2": {"name": "Food Services and Drinking Places", "emp": 5410.5}, "3": {"name": "Food Manufacturing", "emp": 3811.25}}}, {"FEATURE2": "County Seat", "NAME": "Waycross", "POP_2010": "14649", "STATE_FIPS": "13", "LATITUDE": "31.2135511", "LONGITUDE": "-82.3540178", "qwi_geography": "1348180", "industry": {"total": 17189.75, "1": {"name": "Educational Services", "emp": 1850}, "2": {"name": "Ambulatory Health Care Services", "emp": 1462.75}, "3": {"name": "Food Services and Drinking Places", "emp": 1287.25}}}, {"FEATURE2": "County Seat", "NAME": "Hilo", "POP_2010": "43263", "STATE_FIPS": "15", "LATITUDE": "19.722474", "LONGITUDE": "-155.0868273", "qwi_geography": "1525900", "industry": {"total": 48849.25, "1": {"name": "Accommodation", "emp": 5456}, "2": {"name": "Food Services and Drinking Places", "emp": 5120.5}, "3": {"name": "Administrative and Support Services", "emp": 3406.5}}}, {"FEATURE2": "-999", "NAME": "Kahului", "POP_2010": "26337", "STATE_FIPS": "15", "LATITUDE": "20.8820295", "LONGITUDE": "-156.4735937", "qwi_geography": "1527980", "industry": {"total": 59760, "1": {"name": "Accommodation", "emp": 11437}, "2": {"name": "Food Services and Drinking Places", "emp": 7876}, "3": {"name": "Administrative and Support Services", "emp": 4408}}}, {"FEATURE2": "County Seat", "NAME": "Blackfoot", "POP_2010": "11899", "STATE_FIPS": "16", "LATITUDE": "43.1904709", "LONGITUDE": "-112.3449773", "qwi_geography": "1613940", "industry": {"total": 12742, "1": {"name": "Food Manufacturing", "emp": 1837.75}, "2": {"name": "Educational Services", "emp": 1471.25}, "3": {"name": "Executive, Legislative, and Other General Government Support", "emp": 1091}}}, {"FEATURE2": "-999", "NAME": "Boise City", "POP_2010": "205671", "STATE_FIPS": "16", "LATITUDE": "43.5991149", "LONGITUDE": "-116.2306049", "qwi_geography": "1614260", "industry": {"total": 264414.25, "1": {"name": "Educational Services", "emp": 20960.75}, "2": {"name": "Administrative and Support Services", "emp": 18741.75}, "3": {"name": "Hospitals", "emp": 18387.25}}}, {"FEATURE2": "County Seat", "NAME": "Burley", "POP_2010": "10345", "STATE_FIPS": "16", "LATITUDE": "42.5357428", "LONGITUDE": "-113.7927948", "qwi_geography": "1615420", "industry": {"total": 15885, "1": {"name": "Food Manufacturing", "emp": 1519}, "2": {"name": "Animal Production and Aquaculture", "emp": 1308}, "3": {"name": "Educational Services", "emp": 1097.5}}}, {"FEATURE2": "County Seat", "NAME": "Hailey", "POP_2010": "7960", "STATE_FIPS": "16", "LATITUDE": "43.5196288", "LONGITUDE": "-114.3153245", "qwi_geography": "1625200", "industry": {"total": 11443.75, "1": {"name": "Food Services and Drinking Places", "emp": 1191.5}, "2": {"name": "Educational Services", "emp": 1032.5}, "3": {"name": "Specialty Trade Contractors", "emp": 939.75}}}, {"FEATURE2": "County Seat", "NAME": "Idaho Falls", "POP_2010": "56813", "STATE_FIPS": "16", "LATITUDE": "43.4930718324", "LONGITUDE": "-112.036292595", "qwi_geography": "1626820", "industry": {"total": 54689.75, "1": {"name": "Professional, Scientific, and Technical Services", "emp": 7111}, "2": {"name": "Ambulatory Health Care Services", "emp": 4464.75}, "3": {"name": "Educational Services", "emp": 3681.25}}}, {"FEATURE2": "County Seat", "NAME": "Lewiston", "POP_2010": "31894", "STATE_FIPS": "16", "LATITUDE": "46.4165506", "LONGITUDE": "-117.0176569", "qwi_geography": "1630300", "industry": {"total": 19078.5, "1": {"name": "Fabricated Metal Product Manufacturing", "emp": 1976.25}, "2": {"name": "Educational Services", "emp": 1379.5}, "3": {"name": "Ambulatory Health Care Services", "emp": 1278.25}}}, {"FEATURE2": "County Seat", "NAME": "Moscow", "POP_2010": "23800", "STATE_FIPS": "16", "LATITUDE": "46.7323875", "LONGITUDE": "-117.0001651", "qwi_geography": "1634140", "industry": {"total": 10964.25, "1": {"name": "Educational Services", "emp": 3416.75}, "2": {"name": "Food Services and Drinking Places", "emp": 1107.75}, "3": {"name": "Professional, Scientific, and Technical Services", "emp": 548.5}}}, {"FEATURE2": "County Seat", "NAME": "Mountain Home", "POP_2010": "14206", "STATE_FIPS": "16", "LATITUDE": "43.1329504", "LONGITUDE": "-115.6911975", "qwi_geography": "1634300", "industry": {"total": 4741.25, "1": {"name": "Educational Services", "emp": 505.75}, "2": {"name": "Food Services and Drinking Places", "emp": 496.75}, "3": {"name": "Food Manufacturing", "emp": 350}}}, {"FEATURE2": "County Seat", "NAME": "Pocatello", "POP_2010": "54255", "STATE_FIPS": "16", "LATITUDE": "42.8713032", "LONGITUDE": "-112.4455344", "qwi_geography": "1638540", "industry": {"total": 28512.25, "1": {"name": "Educational Services", "emp": 4078.5}, "2": {"name": "Food Services and Drinking Places", "emp": 2222.75}, "3": {"name": "Ambulatory Health Care Services", "emp": 2013.25}}}, {"FEATURE2": "County Seat", "NAME": "Rexburg", "POP_2010": "25484", "STATE_FIPS": "16", "LATITUDE": "43.8260227", "LONGITUDE": "-111.7896876", "qwi_geography": "1639940", "industry": {"total": 14736.75, "1": {"name": "Educational Services", "emp": 3064.5}, "2": {"name": "Professional, Scientific, and Technical Services", "emp": 997.75}, "3": {"name": "Administrative and Support Services", "emp": 829}}}, {"FEATURE2": "County Seat", "NAME": "Sandpoint", "POP_2010": "7365", "STATE_FIPS": "16", "LATITUDE": "48.2765903", "LONGITUDE": "-116.5532476", "qwi_geography": "1641760", "industry": {"total": 11705, "1": {"name": "Food Services and Drinking Places", "emp": 831.25}, "2": {"name": "Educational Services", "emp": 822}, "3": {"name": "Ambulatory Health Care Services", "emp": 602}}}, {"FEATURE2": "County Seat", "NAME": "Twin Falls", "POP_2010": "44125", "STATE_FIPS": "16", "LATITUDE": "42.5629668", "LONGITUDE": "-114.4608711", "qwi_geography": "1646300", "industry": {"total": 39610, "1": {"name": "Food Manufacturing", "emp": 3626.25}, "2": {"name": "Educational Services", "emp": 3277.5}, "3": {"name": "Animal Production and Aquaculture", "emp": 2810.25}}}, {"FEATURE2": "County Seat", "NAME": "Bloomington", "POP_2010": "76610", "STATE_FIPS": "17", "LATITUDE": "40.4842027", "LONGITUDE": "-88.9936873", "qwi_geography": "1714010", "industry": {"total": 80684.5, "1": {"name": "Insurance Carriers and Related Activities", "emp": 19592.25}, "2": {"name": "Educational Services", "emp": 9822.25}, "3": {"name": "Food Services and Drinking Places", "emp": 7521.25}}}, {"FEATURE2": "-999", "NAME": "Burlington", "POP_2010": "618", "STATE_FIPS": "17", "LATITUDE": "42.0528038", "LONGITUDE": "-88.5481412", "qwi_geography": "1715460", "industry": {"total": 905.25, "1": {"name": "Educational Services", "emp": 177}, "2": {"name": "Merchant Wholesalers, Nondurable Goods", "emp": 99}, "3": {"name": "Executive, Legislative, and Other General Government Support", "emp": 93.75}}}, {"FEATURE2": "-999", "NAME": "Canton", "POP_2010": "14704", "STATE_FIPS": "17", "LATITUDE": "40.5580945", "LONGITUDE": "-90.0351167", "qwi_geography": "1715900", "industry": {"total": 7395, "1": {"name": "Educational Services", "emp": 1008.75}, "2": {"name": "Food Services and Drinking Places", "emp": 553.25}, "3": {"name": "Nursing and Residential Care Facilities", "emp": 500.25}}}, {"FEATURE2": "-999", "NAME": "Carbondale", "POP_2010": "25902", "STATE_FIPS": "17", "LATITUDE": "37.7272727", "LONGITUDE": "-89.2167501", "qwi_geography": "1716060", "industry": {"total": 44470.5, "1": {"name": "Educational Services", "emp": 7680.75}, "2": {"name": "Food Services and Drinking Places", "emp": 3772}, "3": {"name": "Ambulatory Health Care Services", "emp": 3119.5}}}, {"FEATURE2": "-999", "NAME": "Centralia", "POP_2010": "13032", "STATE_FIPS": "17", "LATITUDE": "38.5250491", "LONGITUDE": "-89.1334037", "qwi_geography": "1716460", "industry": {"total": 11285.5, "1": {"name": "Educational Services", "emp": 1129.5}, "2": {"name": "Transportation Equipment Manufacturing", "emp": 930.25}, "3": {"name": "Nursing and Residential Care Facilities", "emp": 848}}}, {"FEATURE2": "-999", "NAME": "Champaign", "POP_2010": "81055", "STATE_FIPS": "17", "LATITUDE": "40.1164205", "LONGITUDE": "-88.2433829", "qwi_geography": "1716580", "industry": {"total": 83550.5, "1": {"name": "Educational Services", "emp": 18612}, "2": {"name": "Food Services and Drinking Places", "emp": 6839.75}, "3": {"name": "Ambulatory Health Care Services", "emp": 5322}}}, {"FEATURE2": "County Seat", "NAME": "Charleston", "POP_2010": "21838", "STATE_FIPS": "17", "LATITUDE": "39.4961458", "LONGITUDE": "-88.1761521", "qwi_geography": "1716660", "industry": {"total": 22877.5, "1": {"name": "Educational Services", "emp": 3475}, "2": {"name": "Administrative and Support Services", "emp": 1543.5}, "3": {"name": "Nursing and Residential Care Facilities", "emp": 1493}}}, {"FEATURE2": "County Seat", "NAME": "Chicago", "POP_2010": "2695598", "STATE_FIPS": "17", "LATITUDE": "41.850033", "LONGITUDE": "-87.6500523", "qwi_geography": "1716980", "industry": {"total": 3731404.75, "1": {"name": "Educational Services", "emp": 339851.75}, "2": {"name": "Professional, Scientific, and Technical Services", "emp": 319968.25}, "3": {"name": "Food Services and Drinking Places", "emp": 263106.75}}}, {"FEATURE2": "County Seat", "NAME": "Danville", "POP_2010": "33027", "STATE_FIPS": "17", "LATITUDE": "40.124481", "LONGITUDE": "-87.6300207", "qwi_geography": "1719180", "industry": {"total": 22327, "1": {"name": "Educational Services", "emp": 2436.75}, "2": {"name": "Food Services and Drinking Places", "emp": 1546}, "3": {"name": "Merchant Wholesalers, Nondurable Goods", "emp": 1353}}}, {"FEATURE2": "-999", "NAME": "Moline", "POP_2010": "43483", "STATE_FIPS": "17", "LATITUDE": "41.5067003", "LONGITUDE": "-90.5151342", "qwi_geography": "1719340", "industry": {"total": 75232.75, "1": {"name": "Educational Services", "emp": 7137}, "2": {"name": "Food Services and Drinking Places", "emp": 4680}, "3": {"name": "Management of Companies and Enterprises", "emp": 4508.5}}}, {"FEATURE2": "County Seat", "NAME": "Decatur", "POP_2010": "76122", "STATE_FIPS": "17", "LATITUDE": "39.8403147", "LONGITUDE": "-88.9548001", "qwi_geography": "1719500", "industry": {"total": 43052, "1": {"name": "Food Manufacturing", "emp": 5457.75}, "2": {"name": "Educational Services", "emp": 3430}, "3": {"name": "Food Services and Drinking Places", "emp": 3335.25}}}, {"FEATURE2": "County Seat", "NAME": "Dixon", "POP_2010": "15733", "STATE_FIPS": "17", "LATITUDE": "41.8389213", "LONGITUDE": "-89.4795478", "qwi_geography": "1719940", "industry": {"total": 12014.25, "1": {"name": "Food Manufacturing", "emp": 1250.25}, "2": {"name": "Educational Services", "emp": 942.75}, "3": {"name": "Machinery Manufacturing", "emp": 761.25}}}, {"FEATURE2": "County Seat", "NAME": "Effingham", "POP_2010": "12328", "STATE_FIPS": "17", "LATITUDE": "39.1200418", "LONGITUDE": "-88.5433829", "qwi_geography": "1720820", "industry": {"total": 18418.5, "1": {"name": "Ambulatory Health Care Services", "emp": 1729.5}, "2": {"name": "Food Services and Drinking Places", "emp": 1538.75}, "3": {"name": "Furniture and Related Product Manufacturing", "emp": 859}}}, {"FEATURE2": "County Seat", "NAME": "Freeport", "POP_2010": "25638", "STATE_FIPS": "17", "LATITUDE": "42.2966861", "LONGITUDE": "-89.6212271", "qwi_geography": "1723300", "industry": {"total": 14279, "1": {"name": "Educational Services", "emp": 1474}, "2": {"name": "Food Manufacturing", "emp": 1013}, "3": {"name": "Food Services and Drinking Places", "emp": 740.25}}}, {"FEATURE2": "County Seat", "NAME": "Galesburg", "POP_2010": "32195", "STATE_FIPS": "17", "LATITUDE": "40.9478158", "LONGITUDE": "-90.3712395", "qwi_geography": "1723660", "industry": {"total": 16442.75, "1": {"name": "Nursing and Residential Care Facilities", "emp": 1822}, "2": {"name": "Educational Services", "emp": 1729.75}, "3": {"name": "Food Services and Drinking Places", "emp": 1442.75}}}, {"FEATURE2": "County Seat", "NAME": "Jacksonville", "POP_2010": "19446", "STATE_FIPS": "17", "LATITUDE": "39.733936", "LONGITUDE": "-90.2290098", "qwi_geography": "1727300", "industry": {"total": 13117.25, "1": {"name": "Educational Services", "emp": 1597.25}, "2": {"name": "Food Services and Drinking Places", "emp": 1023}, "3": {"name": "Nursing and Residential Care Facilities", "emp": 800}}}, {"FEATURE2": "County Seat", "NAME": "Kankakee", "POP_2010": "27537", "STATE_FIPS": "17", "LATITUDE": "41.1200325", "LONGITUDE": "-87.8611531", "qwi_geography": "1728100", "industry": {"total": 40152.5, "1": {"name": "Hospitals", "emp": 5929}, "2": {"name": "Educational Services", "emp": 4052.25}, "3": {"name": "Food Services and Drinking Places", "emp": 2608}}}, {"FEATURE2": "County Seat", "NAME": "Lincoln", "POP_2010": "14504", "STATE_FIPS": "17", "LATITUDE": "40.1483768", "LONGITUDE": "-89.3648183", "qwi_geography": "1730660", "industry": {"total": 7947.75, "1": {"name": "Educational Services", "emp": 848}, "2": {"name": "Justice, Public Order, and Safety Activities", "emp": 735.75}, "3": {"name": "Food Services and Drinking Places", "emp": 587}}}, {"FEATURE2": "County Seat", "NAME": "Macomb", "POP_2010": "19288", "STATE_FIPS": "17", "LATITUDE": "40.4592076", "LONGITUDE": "-90.6717971", "qwi_geography": "1731380", "industry": {"total": 9808, "1": {"name": "Educational Services", "emp": 2226.5}, "2": {"name": "Fabricated Metal Product Manufacturing", "emp": 1043.25}, "3": {"name": "Food Services and Drinking Places", "emp": 870.5}}}, {"FEATURE2": "County Seat", "NAME": "Mount Vernon", "POP_2010": "15277", "STATE_FIPS": "17", "LATITUDE": "38.3172715", "LONGITUDE": "-88.9031201", "qwi_geography": "1734500", "industry": {"total": 18361.25, "1": {"name": "Plastics and Rubber Products Manufacturing", "emp": 3649}, "2": {"name": "Hospitals", "emp": 1567.25}, "3": {"name": "Educational Services", "emp": 1301}}}, {"FEATURE2": "County Seat", "NAME": "Ottawa", "POP_2010": "18768", "STATE_FIPS": "17", "LATITUDE": "41.3455892", "LONGITUDE": "-88.8425769", "qwi_geography": "1736860", "industry": {"total": 49879.25, "1": {"name": "Educational Services", "emp": 4564.5}, "2": {"name": "Food Services and Drinking Places", "emp": 3372.5}, "3": {"name": "Hospitals", "emp": 2527}}}, {"FEATURE2": "County Seat", "NAME": "Peoria", "POP_2010": "115007", "STATE_FIPS": "17", "LATITUDE": "40.6936488", "LONGITUDE": "-89.5889864", "qwi_geography": "1737900", "industry": {"total": 150387.25, "1": {"name": "Educational Services", "emp": 12074}, "2": {"name": "Hospitals", "emp": 11021.5}, "3": {"name": "Food Services and Drinking Places", "emp": 10689.25}}}, {"FEATURE2": "County Seat", "NAME": "Pontiac", "POP_2010": "11931", "STATE_FIPS": "17", "LATITUDE": "40.8808666", "LONGITUDE": "-88.6297839", "qwi_geography": "1738700", "industry": {"total": 13088.75, "1": {"name": "Educational Services", "emp": 1068.5}, "2": {"name": "Publishing Industries (except Internet)", "emp": 1060.5}, "3": {"name": "Hospitals", "emp": 893.5}}}, {"FEATURE2": "County Seat", "NAME": "Quincy", "POP_2010": "40633", "STATE_FIPS": "17", "LATITUDE": "39.9356016", "LONGITUDE": "-91.4098727", "qwi_geography": "1739500", "industry": {"total": 29718.75, "1": {"name": "Hospitals", "emp": 2131.25}, "2": {"name": "Educational Services", "emp": 1997.25}, "3": {"name": "Nursing and Residential Care Facilities", "emp": 1904.75}}}, {"FEATURE2": "-999", "NAME": "Rochelle", "POP_2010": "9574", "STATE_FIPS": "17", "LATITUDE": "41.9239178", "LONGITUDE": "-89.0687074", "qwi_geography": "1740300", "industry": {"total": 14109, "1": {"name": "Educational Services", "emp": 1625.25}, "2": {"name": "Machinery Manufacturing", "emp": 995.25}, "3": {"name": "Food Services and Drinking Places", "emp": 823.25}}}, {"FEATURE2": "County Seat", "NAME": "Rockford", "POP_2010": "152871", "STATE_FIPS": "17", "LATITUDE": "42.2711311", "LONGITUDE": "-89.0939952", "qwi_geography": "1740420", "industry": {"total": 122656.25, "1": {"name": "Educational Services", "emp": 10744}, "2": {"name": "Administrative and Support Services", "emp": 8794.75}, "3": {"name": "Food Services and Drinking Places", "emp": 8733}}}, {"FEATURE2": "State Capital County Seat", "NAME": "Springfield", "POP_2010": "116250", "STATE_FIPS": "17", "LATITUDE": "39.8017171", "LONGITUDE": "-89.6437107", "qwi_geography": "1744100", "industry": {"total": 118141.75, "1": {"name": "Administration of Human Resource Programs", "emp": 11799.75}, "2": {"name": "Executive, Legislative, and Other General Government Support", "emp": 10555.25}, "3": {"name": "Educational Services", "emp": 8176}}}, {"FEATURE2": "-999", "NAME": "Sterling", "POP_2010": "15370", "STATE_FIPS": "17", "LATITUDE": "41.788642", "LONGITUDE": "-89.6962194", "qwi_geography": "1744580", "industry": {"total": 17755.5, "1": {"name": "Educational Services", "emp": 1790}, "2": {"name": "Electrical Equipment, Appliance, and Component Manufacturing", "emp": 1372}, "3": {"name": "Food Services and Drinking Places", "emp": 1287.75}}}, {"FEATURE2": "County Seat", "NAME": "Taylorville", "POP_2010": "11246", "STATE_FIPS": "17", "LATITUDE": "39.548935", "LONGITUDE": "-89.294533", "qwi_geography": "1745380", "industry": {"total": 9555.25, "1": {"name": "Fabricated Metal Product Manufacturing", "emp": 1111.25}, "2": {"name": "Educational Services", "emp": 1102.25}, "3": {"name": "Food Services and Drinking Places", "emp": 581.75}}}, {"FEATURE2": "County Seat", "NAME": "Angola", "POP_2010": "8612", "STATE_FIPS": "18", "LATITUDE": "41.6347726", "LONGITUDE": "-84.9994088", "qwi_geography": "1811420", "industry": {"total": 12688.25, "1": {"name": "Fabricated Metal Product Manufacturing", "emp": 1161.5}, "2": {"name": "Educational Services", "emp": 1145}, "3": {"name": "Food Services and Drinking Places", "emp": 968}}}, {"FEATURE2": "County Seat", "NAME": "Auburn", "POP_2010": "12731", "STATE_FIPS": "18", "LATITUDE": "41.3669942", "LONGITUDE": "-85.0588575", "qwi_geography": "1812140", "industry": {"total": 19437.5, "1": {"name": "Fabricated Metal Product Manufacturing", "emp": 3450.75}, "2": {"name": "Plastics and Rubber Products Manufacturing", "emp": 1308.75}, "3": {"name": "Primary Metal Manufacturing", "emp": 1078.5}}}, {"FEATURE2": "County Seat", "NAME": "Bedford", "POP_2010": "13413", "STATE_FIPS": "18", "LATITUDE": "38.8611619", "LONGITUDE": "-86.4872149", "qwi_geography": "1813260", "industry": {"total": 11244.25, "1": {"name": "Educational Services", "emp": 1233.75}, "2": {"name": "Food Services and Drinking Places", "emp": 782.75}, "3": {"name": "Nursing and Residential Care Facilities", "emp": 692}}}, {"FEATURE2": "County Seat", "NAME": "Bloomington", "POP_2010": "80405", "STATE_FIPS": "18", "LATITUDE": "39.165325", "LONGITUDE": "-86.5263857", "qwi_geography": "1814020", "industry": {"total": 59301.5, "1": {"name": "Educational Services", "emp": 15315.5}, "2": {"name": "Food Services and Drinking Places", "emp": 5171.75}, "3": {"name": "Miscellaneous Manufacturing", "emp": 4054.5}}}, {"FEATURE2": "County Seat", "NAME": "Columbus", "POP_2010": "44061", "STATE_FIPS": "18", "LATITUDE": "39.2014405", "LONGITUDE": "-85.9213796", "qwi_geography": "1818020", "industry": {"total": 43743.75, "1": {"name": "Machinery Manufacturing", "emp": 8436.5}, "2": {"name": "Transportation Equipment Manufacturing", "emp": 4517.5}, "3": {"name": "Educational Services", "emp": 2659.5}}}, {"FEATURE2": "County Seat", "NAME": "Connersville", "POP_2010": "13481", "STATE_FIPS": "18", "LATITUDE": "39.6411589", "LONGITUDE": "-85.1410748", "qwi_geography": "1818220", "industry": {"total": 5524.25, "1": {"name": "Educational Services", "emp": 450.25}, "2": {"name": "Nursing and Residential Care Facilities", "emp": 432.75}, "3": {"name": "Food Services and Drinking Places", "emp": 414.75}}}, {"FEATURE2": "County Seat", "NAME": "Crawfordsville", "POP_2010": "15915", "STATE_FIPS": "18", "LATITUDE": "40.0411536", "LONGITUDE": "-86.8744516", "qwi_geography": "1818820", "industry": {"total": 13857.75, "1": {"name": "Printing and Related Support Activities", "emp": 1312}, "2": {"name": "Educational Services", "emp": 1142.75}, "3": {"name": "Food Services and Drinking Places", "emp": 848}}}, {"FEATURE2": "County Seat", "NAME": "Decatur", "POP_2010": "9405", "STATE_FIPS": "18", "LATITUDE": "40.830603", "LONGITUDE": "-84.9291329", "qwi_geography": "1819540", "industry": {"total": 11982.25, "1": {"name": "Transportation Equipment Manufacturing", "emp": 2100.5}, "2": {"name": "Educational Services", "emp": 707.25}, "3": {"name": "Food Services and Drinking Places", "emp": 631.5}}}, {"FEATURE2": "-999", "NAME": "Elkhart", "POP_2010": "50949", "STATE_FIPS": "18", "LATITUDE": "41.6819935", "LONGITUDE": "-85.9766671", "qwi_geography": "1821140", "industry": {"total": 110840.75, "1": {"name": "Transportation Equipment Manufacturing", "emp": 28872.25}, "2": {"name": "Fabricated Metal Product Manufacturing", "emp": 6243.5}, "3": {"name": "Educational Services", "emp": 5655.75}}}, {"FEATURE2": "County Seat", "NAME": "Evansville", "POP_2010": "117429", "STATE_FIPS": "18", "LATITUDE": "37.9747644", "LONGITUDE": "-87.5558482", "qwi_geography": "1821780", "industry": {"total": 113718, "1": {"name": "Educational Services", "emp": 9385.5}, "2": {"name": "Food Services and Drinking Places", "emp": 8880.75}, "3": {"name": "Hospitals", "emp": 8435.5}}}, {"FEATURE2": "County Seat", "NAME": "Fort Wayne", "POP_2010": "253691", "STATE_FIPS": "18", "LATITUDE": "41.1306041", "LONGITUDE": "-85.1288597", "qwi_geography": "1823060", "industry": {"total": 184686.5, "1": {"name": "Food Services and Drinking Places", "emp": 14120}, "2": {"name": "Educational Services", "emp": 13860}, "3": {"name": "Hospitals", "emp": 12159.5}}}, {"FEATURE2": "County Seat", "NAME": "Frankfort", "POP_2010": "16422", "STATE_FIPS": "18", "LATITUDE": "40.2794809", "LONGITUDE": "-86.5108355", "qwi_geography": "1823140", "industry": {"total": 10731.75, "1": {"name": "Food Manufacturing", "emp": 1780.25}, "2": {"name": "Administrative and Support Services", "emp": 730}, "3": {"name": "Educational Services", "emp": 720.75}}}, {"FEATURE2": "County Seat", "NAME": "Greensburg", "POP_2010": "11492", "STATE_FIPS": "18", "LATITUDE": "39.3372722", "LONGITUDE": "-85.483581", "qwi_geography": "1824700", "industry": {"total": 11874.25, "1": {"name": "Transportation Equipment Manufacturing", "emp": 3383.5}, "2": {"name": "Administrative and Support Services", "emp": 732.5}, "3": {"name": "Food Services and Drinking Places", "emp": 686}}}, {"FEATURE2": "County Seat", "NAME": "Huntington", "POP_2010": "17391", "STATE_FIPS": "18", "LATITUDE": "40.8831011", "LONGITUDE": "-85.497476", "qwi_geography": "1826540", "industry": {"total": 11632.75, "1": {"name": "Educational Services", "emp": 848}, "2": {"name": "Computer and Electronic Product Manufacturing", "emp": 811}, "3": {"name": "Food Services and Drinking Places", "emp": 749}}}, {"FEATURE2": "State Capital County Seat", "NAME": "Indianapolis", "POP_2010": "820445", "STATE_FIPS": "18", "LATITUDE": "39.7683765", "LONGITUDE": "-86.1580423", "qwi_geography": "1826900", "industry": {"total": 895707, "1": {"name": "Food Services and Drinking Places", "emp": 66880}, "2": {"name": "Educational Services", "emp": 63521.25}, "3": {"name": "Administrative and Support Services", "emp": 58838.5}}}, {"FEATURE2": "County Seat", "NAME": "Jasper", "POP_2010": "15038", "STATE_FIPS": "18", "LATITUDE": "38.3914418", "LONGITUDE": "-86.9311094", "qwi_geography": "1827540", "industry": {"total": 27006, "1": {"name": "Furniture and Related Product Manufacturing", "emp": 6387}, "2": {"name": "Educational Services", "emp": 1375.75}, "3": {"name": "Food Services and Drinking Places", "emp": 1347.75}}}, {"FEATURE2": "-999", "NAME": "Kendallville", "POP_2010": "9862", "STATE_FIPS": "18", "LATITUDE": "41.4414385", "LONGITUDE": "-85.2649754", "qwi_geography": "1828340", "industry": {"total": 16005.75, "1": {"name": "Transportation Equipment Manufacturing", "emp": 2858.5}, "2": {"name": "Fabricated Metal Product Manufacturing", "emp": 1867.5}, "3": {"name": "Educational Services", "emp": 1239.5}}}, {"FEATURE2": "County Seat", "NAME": "Kokomo", "POP_2010": "45468", "STATE_FIPS": "18", "LATITUDE": "40.486427", "LONGITUDE": "-86.1336033", "qwi_geography": "1829020", "industry": {"total": 35247.75, "1": {"name": "Transportation Equipment Manufacturing", "emp": 11384}, "2": {"name": "Food Services and Drinking Places", "emp": 3011.5}, "3": {"name": "Educational Services", "emp": 2609.25}}}, {"FEATURE2": "County Seat", "NAME": "Lafayette", "POP_2010": "67140", "STATE_FIPS": "18", "LATITUDE": "40.4167022", "LONGITUDE": "-86.8752869", "qwi_geography": "1829200", "industry": {"total": 82328.5, "1": {"name": "Educational Services", "emp": 16644}, "2": {"name": "Transportation Equipment Manufacturing", "emp": 7650.5}, "3": {"name": "Food Services and Drinking Places", "emp": 6506}}}, {"FEATURE2": "County Seat", "NAME": "Logansport", "POP_2010": "18396", "STATE_FIPS": "18", "LATITUDE": "40.7544843", "LONGITUDE": "-86.3566659", "qwi_geography": "1830900", "industry": {"total": 13106.25, "1": {"name": "Food Manufacturing", "emp": 1672.5}, "2": {"name": "Educational Services", "emp": 1118}, "3": {"name": "Transportation Equipment Manufacturing", "emp": 755.25}}}, {"FEATURE2": "County Seat", "NAME": "Madison", "POP_2010": "11967", "STATE_FIPS": "18", "LATITUDE": "38.7358933", "LONGITUDE": "-85.3799577", "qwi_geography": "1831500", "industry": {"total": 10622, "1": {"name": "Educational Services", "emp": 1098.5}, "2": {"name": "Transportation Equipment Manufacturing", "emp": 1056.5}, "3": {"name": "Food Services and Drinking Places", "emp": 838.75}}}, {"FEATURE2": "County Seat", "NAME": "Marion", "POP_2010": "29948", "STATE_FIPS": "18", "LATITUDE": "40.5583739", "LONGITUDE": "-85.6591442", "qwi_geography": "1831980", "industry": {"total": 22543.25, "1": {"name": "Educational Services", "emp": 3321.5}, "2": {"name": "Warehousing and Storage", "emp": 1674.75}, "3": {"name": "Food Services and Drinking Places", "emp": 1650.5}}}, {"FEATURE2": "-999", "NAME": "Michigan City", "POP_2010": "31479", "STATE_FIPS": "18", "LATITUDE": "41.7075394", "LONGITUDE": "-86.8950297", "qwi_geography": "1833140", "industry": {"total": 34741.5, "1": {"name": "Food Services and Drinking Places", "emp": 2780}, "2": {"name": "Educational Services", "emp": 2502.75}, "3": {"name": "Machinery Manufacturing", "emp": 1638.75}}}, {"FEATURE2": "County Seat", "NAME": "Muncie", "POP_2010": "70085", "STATE_FIPS": "18", "LATITUDE": "40.1933767", "LONGITUDE": "-85.3863599", "qwi_geography": "1834620", "industry": {"total": 39833.75, "1": {"name": "Educational Services", "emp": 5849.75}, "2": {"name": "Food Services and Drinking Places", "emp": 3533}, "3": {"name": "Ambulatory Health Care Services", "emp": 3031.5}}}, {"FEATURE2": "County Seat", "NAME": "New Castle", "POP_2010": "18114", "STATE_FIPS": "18", "LATITUDE": "39.9289351", "LONGITUDE": "-85.3702477", "qwi_geography": "1835220", "industry": {"total": 11166, "1": {"name": "Educational Services", "emp": 1030.5}, "2": {"name": "Ambulatory Health Care Services", "emp": 1020.25}, "3": {"name": "Food Services and Drinking Places", "emp": 745}}}, {"FEATURE2": "-999", "NAME": "North Vernon", "POP_2010": "6728", "STATE_FIPS": "18", "LATITUDE": "39.006165", "LONGITUDE": "-85.6235796", "qwi_geography": "1835860", "industry": {"total": 6129.5, "1": {"name": "Educational Services", "emp": 600}, "2": {"name": "Plastics and Rubber Products Manufacturing", "emp": 448}, "3": {"name": "Specialty Trade Contractors", "emp": 281.25}}}, {"FEATURE2": "County Seat", "NAME": "Peru", "POP_2010": "11417", "STATE_FIPS": "18", "LATITUDE": "40.7536528", "LONGITUDE": "-86.0688811", "qwi_geography": "1837940", "industry": {"total": 7791, "1": {"name": "Food Services and Drinking Places", "emp": 576}, "2": {"name": "Educational Services", "emp": 569}, "3": {"name": "Food Manufacturing", "emp": 521.25}}}, {"FEATURE2": "County Seat", "NAME": "Plymouth", "POP_2010": "10033", "STATE_FIPS": "18", "LATITUDE": "41.3436555", "LONGITUDE": "-86.3097278", "qwi_geography": "1838500", "industry": {"total": 16134.25, "1": {"name": "Educational Services", "emp": 2003.25}, "2": {"name": "Plastics and Rubber Products Manufacturing", "emp": 1497}, "3": {"name": "Fabricated Metal Product Manufacturing", "emp": 1194.75}}}, {"FEATURE2": "County Seat", "NAME": "Richmond", "POP_2010": "36812", "STATE_FIPS": "18", "LATITUDE": "39.8289369", "LONGITUDE": "-84.8902383", "qwi_geography": "1839980", "industry": {"total": 24261.25, "1": {"name": "Educational Services", "emp": 2294}, "2": {"name": "Food Services and Drinking Places", "emp": 2063.75}, "3": {"name": "Administrative and Support Services", "emp": 1097}}}, {"FEATURE2": "-999", "NAME": "Seymour", "POP_2010": "17503", "STATE_FIPS": "18", "LATITUDE": "38.9592201", "LONGITUDE": "-85.8902547", "qwi_geography": "1842980", "industry": {"total": 18291.5, "1": {"name": "Transportation Equipment Manufacturing", "emp": 1744.75}, "2": {"name": "Warehousing and Storage", "emp": 1251.25}, "3": {"name": "Educational Services", "emp": 1057.25}}}, {"FEATURE2": "County Seat", "NAME": "South Bend", "POP_2010": "101168", "STATE_FIPS": "18", "LATITUDE": "41.6833813", "LONGITUDE": "-86.2500066", "qwi_geography": "1843780", "industry": {"total": 106247.25, "1": {"name": "Educational Services", "emp": 17022.5}, "2": {"name": "Food Services and Drinking Places", "emp": 8241},