[{"FEATURE2": "State Capital County Seat", "NAME": "Dover", "POP_2010": "36047", "STATE_FIPS": "10", "LATITUDE": "39.158168", "LONGITUDE": "-75.5243682", "qwi_geography": "20100", "industry": {"total": 10954.5, "1": {"name": "Educational Services", "emp": 1080}, "2": {"name": "Food Services and Drinking Places", "emp": 901.5}, "3": {"name": "Professional, Scientific, and Technical Services", "emp": 605.5}}}, {"FEATURE2": "-999", "NAME": "Camden", "POP_2010": "3464", "STATE_FIPS": "10", "LATITUDE": "39.1134458", "LONGITUDE": "-75.5418687", "qwi_geography": "37980", "industry": {"total": 10954.5, "1": {"name": "Educational Services", "emp": 1080}, "2": {"name": "Food Services and Drinking Places", "emp": 901.5}, "3": {"name": "Professional, Scientific, and Technical Services", "emp": 605.5}}}, {"FEATURE2": "National Capital", "NAME": "Washington", "POP_2010": "601723", "STATE_FIPS": "11", "LATITUDE": "38.8951118", "LONGITUDE": "-77.0363658", "qwi_geography": "47900", "industry": {"total": 10954.5, "1": {"name": "Educational Services", "emp": 1080}, "2": {"name": "Food Services and Drinking Places", "emp": 901.5}, "3": {"name": "Professional, Scientific, and Technical Services", "emp": 605.5}}}, {"FEATURE2": "County Seat", "NAME": "Arcadia", "POP_2010": "7637", "STATE_FIPS": "12", "LATITUDE": "27.2158826", "LONGITUDE": "-81.8584164", "qwi_geography": "11580", "industry": {"total": 10954.5, "1": {"name": "Educational Services", "emp": 1080}, "2": {"name": "Food Services and Drinking Places", "emp": 901.5}, "3": {"name": "Professional, Scientific, and Technical Services", "emp": 605.5}}}, {"FEATURE2": "-999", "NAME": "Cape Coral", "POP_2010": "154305", "STATE_FIPS": "12", "LATITUDE": "26.5628537", "LONGITUDE": "-81.9495331", "qwi_geography": "15980", "industry": {"total": 10954.5, "1": {"name": "Educational Services", "emp": 1080}, "2": {"name": "Food Services and Drinking Places", "emp": 901.5}, "3": {"name": "Professional, Scientific, and Technical Services", "emp": 605.5}}}, {"FEATURE2": "-999", "NAME": "Clewiston", "POP_2010": "7155", "STATE_FIPS": "12", "LATITUDE": "26.7542312", "LONGITUDE": "-80.9336753", "qwi_geography": "17500", "industry": {"total": 10954.5, "1": {"name": "Educational Services", "emp": 1080}, "2": {"name": "Food Services and Drinking Places", "emp": 901.5}, "3": {"name": "Professional, Scientific, and Technical Services", "emp": 605.5}}}, {"FEATURE2": "County Seat", "NAME": "Crestview", "POP_2010": "20978", "STATE_FIPS": "12", "LATITUDE": "30.7621326", "LONGITUDE": "-86.5705084", "qwi_geography": "18880", "industry": {"total": 10954.5, "1": {"name": "Educational Services", "emp": 1080}, "2": {"name": "Food Services and Drinking Places", "emp": 901.5}, "3": {"name": "Professional, Scientific, and Technical Services", "emp": 605.5}}}, {"FEATURE2": "-999", "NAME": "Deltona", "POP_2010": "85182", "STATE_FIPS": "12", "LATITUDE": "28.9005446", "LONGITUDE": "-81.2636738", "qwi_geography": "19660", "industry": {"total": 10954.5, "1": {"name": "Educational Services", "emp": 1080}, "2": {"name": "Food Services and Drinking Places", "emp": 901.5}, "3": {"name": "Professional, Scientific, and Technical Services", "emp": 605.5}}}, {"FEATURE2": "County Seat", "NAME": "Gainesville", "POP_2010": "124354", "STATE_FIPS": "12", "LATITUDE": "29.6516344", "LONGITUDE": "-82.3248262", "qwi_geography": "23540", "industry": {"total": 10954.5, "1": {"name": "Educational Services", "emp": 1080}, "2": {"name": "Food Services and Drinking Places", "emp": 901.5}, "3": {"name": "Professional, Scientific, and Technical Services", "emp": 605.5}}}, {"FEATURE2": "-999", "NAME": "Homosassa Springs", "POP_2010": "13791", "STATE_FIPS": "12", "LATITUDE": "28.8035939", "LONGITUDE": "-82.5759329", "qwi_geography": "26140", "industry": {"total": 10954.5, "1": {"name": "Educational Services", "emp": 1080}, "2": {"name": "Food Services and Drinking Places", "emp": 901.5}, "3": {"name": "Professional, Scientific, and Technical Services", "emp": 605.5}}}, {"FEATURE2": "County Seat", "NAME": "Jacksonville", "POP_2010": "821784", "STATE_FIPS": "12", "LATITUDE": "30.3321838", "LONGITUDE": "-81.655651", "qwi_geography": "27260", "industry": {"total": 10954.5, "1": {"name": "Educational Services", "emp": 1080}, "2": {"name": "Food Services and Drinking Places", "emp": 901.5}, "3": {"name": "Professional, Scientific, and Technical Services", "emp": 605.5}}}, {"FEATURE2": "County Seat", "NAME": "Key West", "POP_2010": "24649", "STATE_FIPS": "12", "LATITUDE": "24.5557025", "LONGITUDE": "-81.7825914", "qwi_geography": "28580", "industry": {"total": 10954.5, "1": {"name": "Educational Services", "emp": 1080}, "2": {"name": "Food Services and Drinking Places", "emp": 901.5}, "3": {"name": "Professional, Scientific, and Technical Services", "emp": 605.5}}}, {"FEATURE2": "County Seat", "NAME": "Lake City", "POP_2010": "12046", "STATE_FIPS": "12", "LATITUDE": "30.1896756", "LONGITUDE": "-82.6392899", "qwi_geography": "29380", "industry": {"total": 10954.5, "1": {"name": "Educational Services", "emp": 1080}, "2": {"name": "Food Services and Drinking Places", "emp": 901.5}, "3": {"name": "Professional, Scientific, and Technical Services", "emp": 605.5}}}, {"FEATURE2": "-999", "NAME": "Lakeland", "POP_2010": "97422", "STATE_FIPS": "12", "LATITUDE": "28.0394654", "LONGITUDE": "-81.9498042", "qwi_geography": "29460", "industry": {"total": 10954.5, "1": {"name": "Educational Services", "emp": 1080}, "2": {"name": "Food Services and Drinking Places", "emp": 901.5}, "3": {"name": "Professional, Scientific, and Technical Services", "emp": 605.5}}}, {"FEATURE2": "County Seat", "NAME": "Miami", "POP_2010": "399457", "STATE_FIPS": "12", "LATITUDE": "25.7742658", "LONGITUDE": "-80.1936589", "qwi_geography": "33100", "industry": {"total": 10954.5, "1": {"name": "Educational Services", "emp": 1080}, "2": {"name": "Food Services and Drinking Places", "emp": 901.5}, "3": {"name": "Professional, Scientific, and Technical Services", "emp": 605.5}}}, {"FEATURE2": "County Seat", "NAME": "Naples", "POP_2010": "19537", "STATE_FIPS": "12", "LATITUDE": "26.1420358", "LONGITUDE": "-81.7948103", "qwi_geography": "34940", "industry": {"total": 10954.5, "1": {"name": "Educational Services", "emp": 1080}, "2": {"name": "Food Services and Drinking Places", "emp": 901.5}, "3": {"name": "Professional, Scientific, and Technical Services", "emp": 605.5}}}, {"FEATURE2": "-999", "NAME": "North Port", "POP_2010": "57357", "STATE_FIPS": "12", "LATITUDE": "27.044224", "LONGITUDE": "-82.2359254", "qwi_geography": "35840", "industry": {"total": 10954.5, "1": {"name": "Educational Services", "emp": 1080}, "2": {"name": "Food Services and Drinking Places", "emp": 901.5}, "3": {"name": "Professional, Scientific, and Technical Services", "emp": 605.5}}}, {"FEATURE2": "County Seat", "NAME": "Ocala", "POP_2010": "56315", "STATE_FIPS": "12", "LATITUDE": "29.1871986", "LONGITUDE": "-82.1400923", "qwi_geography": "36100", "industry": {"total": 10954.5, "1": {"name": "Educational Services", "emp": 1080}, "2": {"name": "Food Services and Drinking Places", "emp": 901.5}, "3": {"name": "Professional, Scientific, and Technical Services", "emp": 605.5}}}, {"FEATURE2": "County Seat", "NAME": "Okeechobee", "POP_2010": "5621", "STATE_FIPS": "12", "LATITUDE": "27.2439349", "LONGITUDE": "-80.8297828", "qwi_geography": "36380", "industry": {"total": 10954.5, "1": {"name": "Educational Services", "emp": 1080}, "2": {"name": "Food Services and Drinking Places", "emp": 901.5}, "3": {"name": "Professional, Scientific, and Technical Services", "emp": 605.5}}}, {"FEATURE2": "County Seat", "NAME": "Orlando", "POP_2010": "238300", "STATE_FIPS": "12", "LATITUDE": "28.5383355", "LONGITUDE": "-81.3792365", "qwi_geography": "36740", "industry": {"total": 10954.5, "1": {"name": "Educational Services", "emp": 1080}, "2": {"name": "Food Services and Drinking Places", "emp": 901.5}, "3": {"name": "Professional, Scientific, and Technical Services", "emp": 605.5}}}, {"FEATURE2": "County Seat", "NAME": "Palatka", "POP_2010": "10558", "STATE_FIPS": "12", "LATITUDE": "29.6485801", "LONGITUDE": "-81.6375819", "qwi_geography": "37260", "industry": {"total": 10954.5, "1": {"name": "Educational Services", "emp": 1080}, "2": {"name": "Food Services and Drinking Places", "emp": 901.5}, "3": {"name": "Professional, Scientific, and Technical Services", "emp": 605.5}}}, {"FEATURE2": "-999", "NAME": "Palm Bay", "POP_2010": "103190", "STATE_FIPS": "12", "LATITUDE": "28.0344621", "LONGITUDE": "-80.5886646", "qwi_geography": "37340", "industry": {"total": 10954.5, "1": {"name": "Educational Services", "emp": 1080}, "2": {"name": "Food Services and Drinking Places", "emp": 901.5}, "3": {"name": "Professional, Scientific, and Technical Services", "emp": 605.5}}}, {"FEATURE2": "County Seat", "NAME": "Panama City", "POP_2010": "36484", "STATE_FIPS": "12", "LATITUDE": "30.1588129", "LONGITUDE": "-85.6602058", "qwi_geography": "37460", "industry": {"total": 10954.5, "1": {"name": "Educational Services", "emp": 1080}, "2": {"name": "Food Services and Drinking Places", "emp": 901.5}, "3": {"name": "Professional, Scientific, and Technical Services", "emp": 605.5}}}, {"FEATURE2": "County Seat", "NAME": "Pensacola", "POP_2010": "51923", "STATE_FIPS": "12", "LATITUDE": "30.421309", "LONGITUDE": "-87.2169149", "qwi_geography": "37860", "industry": {"total": 10954.5, "1": {"name": "Educational Services", "emp": 1080}, "2": {"name": "Food Services and Drinking Places", "emp": 901.5}, "3": {"name": "Professional, Scientific, and Technical Services", "emp": 605.5}}}, {"FEATURE2": "County Seat", "NAME": "Punta Gorda", "POP_2010": "16641", "STATE_FIPS": "12", "LATITUDE": "26.9297836", "LONGITUDE": "-82.0453664", "qwi_geography": "39460", "industry": {"total": 10954.5, "1": {"name": "Educational Services", "emp": 1080}, "2": {"name": "Food Services and Drinking Places", "emp": 901.5}, "3": {"name": "Professional, Scientific, and Technical Services", "emp": 605.5}}}, {"FEATURE2": "-999", "NAME": "Sebastian", "POP_2010": "21929", "STATE_FIPS": "12", "LATITUDE": "27.816415", "LONGITUDE": "-80.4706078", "qwi_geography": "42680", "industry": {"total": 10954.5, "1": {"name": "Educational Services", "emp": 1080}, "2": {"name": "Food Services and Drinking Places", "emp": 901.5}, "3": {"name": "Professional, Scientific, and Technical Services", "emp": 605.5}}}, {"FEATURE2": "County Seat", "NAME": "Sebring", "POP_2010": "10491", "STATE_FIPS": "12", "LATITUDE": "27.495592", "LONGITUDE": "-81.440907", "qwi_geography": "42700", "industry": {"total": 10954.5, "1": {"name": "Educational Services", "emp": 1080}, "2": {"name": "Food Services and Drinking Places", "emp": 901.5}, "3": {"name": "Professional, Scientific, and Technical Services", "emp": 605.5}}}, {"FEATURE2": "State Capital County Seat", "NAME": "Tallahassee", "POP_2010": "181376", "STATE_FIPS": "12", "LATITUDE": "30.4382559", "LONGITUDE": "-84.2807329", "qwi_geography": "45220", "industry": {"total": 10954.5, "1": {"name": "Educational Services", "emp": 1080}, "2": {"name": "Food Services and Drinking Places", "emp": 901.5}, "3": {"name": "Professional, Scientific, and Technical Services", "emp": 605.5}}}, {"FEATURE2": "County Seat", "NAME": "Tampa", "POP_2010": "335709", "STATE_FIPS": "12", "LATITUDE": "27.9475216", "LONGITUDE": "-82.4584279", "qwi_geography": "45300", "industry": {"total": 10954.5, "1": {"name": "Educational Services", "emp": 1080}, "2": {"name": "Food Services and Drinking Places", "emp": 901.5}, "3": {"name": "Professional, Scientific, and Technical Services", "emp": 605.5}}}, {"FEATURE2": "-999", "NAME": "The Villages", "POP_2010": "51442", "STATE_FIPS": "12", "LATITUDE": "28.934084", "LONGITUDE": "-81.959943", "qwi_geography": "45540", "industry": {"total": 10954.5, "1": {"name": "Educational Services", "emp": 1080}, "2": {"name": "Food Services and Drinking Places", "emp": 901.5}, "3": {"name": "Professional, Scientific, and Technical Services", "emp": 605.5}}}, {"FEATURE2": "County Seat", "NAME": "Wauchula", "POP_2010": "5001", "STATE_FIPS": "12", "LATITUDE": "27.5472589", "LONGITUDE": "-81.8114715", "qwi_geography": "48100", "industry": {"total": 10954.5, "1": {"name": "Educational Services", "emp": 1080}, "2": {"name": "Food Services and Drinking Places", "emp": 901.5}, "3": {"name": "Professional, Scientific, and Technical Services", "emp": 605.5}}}, {"FEATURE2": "County Seat", "NAME": "Albany", "POP_2010": "77434", "STATE_FIPS": "13", "LATITUDE": "31.5785074", "LONGITUDE": "-84.155741", "qwi_geography": "10500", "industry": {"total": 10954.5, "1": {"name": "Educational Services", "emp": 1080}, "2": {"name": "Food Services and Drinking Places", "emp": 901.5}, "3": {"name": "Professional, Scientific, and Technical Services", "emp": 605.5}}}, {"FEATURE2": "County Seat", "NAME": "Americus", "POP_2010": "17041", "STATE_FIPS": "13", "LATITUDE": "32.0723862", "LONGITUDE": "-84.2326876", "qwi_geography": "11140", "industry": {"total": 10954.5, "1": {"name": "Educational Services", "emp": 1080}, "2": {"name": "Food Services and Drinking Places", "emp": 901.5}, "3": {"name": "Professional, Scientific, and Technical Services", "emp": 605.5}}}, {"FEATURE2": "County Seat", "NAME": "Athens", "POP_2010": "-999", "STATE_FIPS": "13", "LATITUDE": "33.960948", "LONGITUDE": "-83.3779358", "qwi_geography": "12020", "industry": {"total": 10954.5, "1": {"name": "Educational Services", "emp": 1080}, "2": {"name": "Food Services and Drinking Places", "emp": 901.5}, "3": {"name": "Professional, Scientific, and Technical Services", "emp": 605.5}}}, {"FEATURE2": "State Capital County Seat", "NAME": "Atlanta", "POP_2010": "420003", "STATE_FIPS": "13", "LATITUDE": "33.7489954", "LONGITUDE": "-84.3879824", "qwi_geography": "12060", "industry": {"total": 10954.5, "1": {"name": "Educational Services", "emp": 1080}, "2": {"name": "Food Services and Drinking Places", "emp": 901.5}, "3": {"name": "Professional, Scientific, and Technical Services", "emp": 605.5}}}, {"FEATURE2": "County Seat", "NAME": "Augusta", "POP_2010": "-999", "STATE_FIPS": "13", "LATITUDE": "33.4709702", "LONGITUDE": "-81.9748379", "qwi_geography": "12260", "industry": {"total": 10954.5, "1": {"name": "Educational Services", "emp": 1080}, "2": {"name": "Food Services and Drinking Places", "emp": 901.5}, "3": {"name": "Professional, Scientific, and Technical Services", "emp": 605.5}}}, {"FEATURE2": "County Seat", "NAME": "Bainbridge", "POP_2010": "12697", "STATE_FIPS": "13", "LATITUDE": "30.9037995", "LONGITUDE": "-84.5754699", "qwi_geography": "12460", "industry": {"total": 10954.5, "1": {"name": "Educational Services", "emp": 1080}, "2": {"name": "Food Services and Drinking Places", "emp": 901.5}, "3": {"name": "Professional, Scientific, and Technical Services", "emp": 605.5}}}, {"FEATURE2": "County Seat", "NAME": "Brunswick", "POP_2010": "15383", "STATE_FIPS": "13", "LATITUDE": "31.1499528", "LONGITUDE": "-81.4914894", "qwi_geography": "15260", "industry": {"total": 10954.5, "1": {"name": "Educational Services", "emp": 1080}, "2": {"name": "Food Services and Drinking Places", "emp": 901.5}, "3": {"name": "Professional, Scientific, and Technical Services", "emp": 605.5}}}, {"FEATURE2": "County Seat", "NAME": "Calhoun", "POP_2010": "15650", "STATE_FIPS": "13", "LATITUDE": "34.502587", "LONGITUDE": "-84.9510542", "qwi_geography": "15660", "industry": {"total": 10954.5, "1": {"name": "Educational Services", "emp": 1080}, "2": {"name": "Food Services and Drinking Places", "emp": 901.5}, "3": {"name": "Professional, Scientific, and Technical Services", "emp": 605.5}}}, {"FEATURE2": "County Seat", "NAME": "Cedartown", "POP_2010": "9750", "STATE_FIPS": "13", "LATITUDE": "34.0095476037", "LONGITUDE": "-85.2494315505", "qwi_geography": "16340", "industry": {"total": 10954.5, "1": {"name": "Educational Services", "emp": 1080}, "2": {"name": "Food Services and Drinking Places", "emp": 901.5}, "3": {"name": "Professional, Scientific, and Technical Services", "emp": 605.5}}}, {"FEATURE2": "County Seat", "NAME": "Columbus", "POP_2010": "189885", "STATE_FIPS": "13", "LATITUDE": "32.4609764", "LONGITUDE": "-84.9877094", "qwi_geography": "17980", "industry": {"total": 10954.5, "1": {"name": "Educational Services", "emp": 1080}, "2": {"name": "Food Services and Drinking Places", "emp": 901.5}, "3": {"name": "Professional, Scientific, and Technical Services", "emp": 605.5}}}, {"FEATURE2": "County Seat", "NAME": "Cordele", "POP_2010": "11147", "STATE_FIPS": "13", "LATITUDE": "31.9635074", "LONGITUDE": "-83.7823938", "qwi_geography": "18380", "industry": {"total": 10954.5, "1": {"name": "Educational Services", "emp": 1080}, "2": {"name": "Food Services and Drinking Places", "emp": 901.5}, "3": {"name": "Professional, Scientific, and Technical Services", "emp": 605.5}}}, {"FEATURE2": "-999", "NAME": "Cornelia", "POP_2010": "4160", "STATE_FIPS": "13", "LATITUDE": "34.5114883", "LONGITUDE": "-83.5271166", "qwi_geography": "18460", "industry": {"total": 10954.5, "1": {"name": "Educational Services", "emp": 1080}, "2": {"name": "Food Services and Drinking Places", "emp": 901.5}, "3": {"name": "Professional, Scientific, and Technical Services", "emp": 605.5}}}, {"FEATURE2": "County Seat", "NAME": "Dalton", "POP_2010": "33128", "STATE_FIPS": "13", "LATITUDE": "34.7698021", "LONGITUDE": "-84.9702228", "qwi_geography": "19140", "industry": {"total": 10954.5, "1": {"name": "Educational Services", "emp": 1080}, "2": {"name": "Food Services and Drinking Places", "emp": 901.5}, "3": {"name": "Professional, Scientific, and Technical Services", "emp": 605.5}}}, {"FEATURE2": "County Seat", "NAME": "Douglas", "POP_2010": "11589", "STATE_FIPS": "13", "LATITUDE": "31.5088073", "LONGITUDE": "-82.8498654", "qwi_geography": "20060", "industry": {"total": 10954.5, "1": {"name": "Educational Services", "emp": 1080}, "2": {"name": "Food Services and Drinking Places", "emp": 901.5}, "3": {"name": "Professional, Scientific, and Technical Services", "emp": 605.5}}}, {"FEATURE2": "County Seat", "NAME": "Dublin", "POP_2010": "16201", "STATE_FIPS": "13", "LATITUDE": "32.5404447", "LONGITUDE": "-82.903754", "qwi_geography": "20140", "industry": {"total": 10954.5, "1": {"name": "Educational Services", "emp": 1080}, "2": {"name": "Food Services and Drinking Places", "emp": 901.5}, "3": {"name": "Professional, Scientific, and Technical Services", "emp": 605.5}}}, {"FEATURE2": "County Seat", "NAME": "Fitzgerald", "POP_2010": "9053", "STATE_FIPS": "13", "LATITUDE": "31.7149082", "LONGITUDE": "-83.2526545", "qwi_geography": "22340", "industry": {"total": 10954.5, "1": {"name": "Educational Services", "emp": 1080}, "2": {"name": "Food Services and Drinking Places", "emp": 901.5}, "3": {"name": "Professional, Scientific, and Technical Services", "emp": 605.5}}}, {"FEATURE2": "County Seat", "NAME": "Gainesville", "POP_2010": "33804", "STATE_FIPS": "13", "LATITUDE": "34.2978794", "LONGITUDE": "-83.8240663", "qwi_geography": "23580", "industry": {"total": 10954.5, "1": {"name": "Educational Services", "emp": 1080}, "2": {"name": "Food Services and Drinking Places", "emp": 901.5}, "3": {"name": "Professional, Scientific, and Technical Services", "emp": 605.5}}}, {"FEATURE2": "County Seat", "NAME": "Hinesville", "POP_2010": "33437", "STATE_FIPS": "13", "LATITUDE": "31.846877", "LONGITUDE": "-81.5959453", "qwi_geography": "25980", "industry": {"total": 10954.5, "1": {"name": "Educational Services", "emp": 1080}, "2": {"name": "Food Services and Drinking Places", "emp": 901.5}, "3": {"name": "Professional, Scientific, and Technical Services", "emp": 605.5}}}, {"FEATURE2": "County Seat", "NAME": "Jefferson", "POP_2010": "9432", "STATE_FIPS": "13", "LATITUDE": "34.1170537", "LONGITUDE": "-83.5723876", "qwi_geography": "27600", "industry": {"total": 10954.5, "1": {"name": "Educational Services", "emp": 1080}, "2": {"name": "Food Services and Drinking Places", "emp": 901.5}, "3": {"name": "Professional, Scientific, and Technical Services", "emp": 605.5}}}, {"FEATURE2": "County Seat", "NAME": "Jesup", "POP_2010": "10214", "STATE_FIPS": "13", "LATITUDE": "31.6074365", "LONGITUDE": "-81.8853924", "qwi_geography": "27700", "industry": {"total": 10954.5, "1": {"name": "Educational Services", "emp": 1080}, "2": {"name": "Food Services and Drinking Places", "emp": 901.5}, "3": {"name": "Professional, Scientific, and Technical Services", "emp": 605.5}}}, {"FEATURE2": "County Seat", "NAME": "LaGrange", "POP_2010": "29588", "STATE_FIPS": "13", "LATITUDE": "33.039291", "LONGITUDE": "-85.0313269", "qwi_geography": "29300", "industry": {"total": 10954.5, "1": {"name": "Educational Services", "emp": 1080}, "2": {"name": "Food Services and Drinking Places", "emp": 901.5}, "3": {"name": "Professional, Scientific, and Technical Services", "emp": 605.5}}}, {"FEATURE2": "County Seat", "NAME": "Macon", "POP_2010": "91351", "STATE_FIPS": "13", "LATITUDE": "32.8406946", "LONGITUDE": "-83.6324022", "qwi_geography": "31420", "industry": {"total": 10954.5, "1": {"name": "Educational Services", "emp": 1080}, "2": {"name": "Food Services and Drinking Places", "emp": 901.5}, "3": {"name": "Professional, Scientific, and Technical Services", "emp": 605.5}}}, {"FEATURE2": "County Seat", "NAME": "Milledgeville", "POP_2010": "17715", "STATE_FIPS": "13", "LATITUDE": "33.0801429", "LONGITUDE": "-83.2320991", "qwi_geography": "33300", "industry": {"total": 10954.5, "1": {"name": "Educational Services", "emp": 1080}, "2": {"name": "Food Services and Drinking Places", "emp": 901.5}, "3": {"name": "Professional, Scientific, and Technical Services", "emp": 605.5}}}, {"FEATURE2": "County Seat", "NAME": "Moultrie", "POP_2010": "14268", "STATE_FIPS": "13", "LATITUDE": "31.179908", "LONGITUDE": "-83.7890631", "qwi_geography": "34220", "industry": {"total": 10954.5, "1": {"name": "Educational Services", "emp": 1080}, "2": {"name": "Food Services and Drinking Places", "emp": 901.5}, "3": {"name": "Professional, Scientific, and Technical Services", "emp": 605.5}}}, {"FEATURE2": "County Seat", "NAME": "Rome", "POP_2010": "36303", "STATE_FIPS": "13", "LATITUDE": "34.257038", "LONGITUDE": "-85.1646726", "qwi_geography": "40660", "industry": {"total": 10954.5, "1": {"name": "Educational Services", "emp": 1080}, "2": {"name": "Food Services and Drinking Places", "emp": 901.5}, "3": {"name": "Professional, Scientific, and Technical Services", "emp": 605.5}}}, {"FEATURE2": "County Seat", "NAME": "Savannah", "POP_2010": "136286", "STATE_FIPS": "13", "LATITUDE": "32.0835407", "LONGITUDE": "-81.0998342", "qwi_geography": "42340", "industry": {"total": 10954.5, "1": {"name": "Educational Services", "emp": 1080}, "2": {"name": "Food Services and Drinking Places", "emp": 901.5}, "3": {"name": "Professional, Scientific, and Technical Services", "emp": 605.5}}}, {"FEATURE2": "County Seat", "NAME": "Statesboro", "POP_2010": "28422", "STATE_FIPS": "13", "LATITUDE": "32.4487877", "LONGITUDE": "-81.7831674", "qwi_geography": "44340", "industry": {"total": 10954.5, "1": {"name": "Educational Services", "emp": 1080}, "2": {"name": "Food Services and Drinking Places", "emp": 901.5}, "3": {"name": "Professional, Scientific, and Technical Services", "emp": 605.5}}}, {"FEATURE2": "County Seat", "NAME": "Summerville", "POP_2010": "4534", "STATE_FIPS": "13", "LATITUDE": "34.480642", "LONGITUDE": "-85.3477343", "qwi_geography": "44900", "industry": {"total": 10954.5, "1": {"name": "Educational Services", "emp": 1080}, "2": {"name": "Food Services and Drinking Places", "emp": 901.5}, "3": {"name": "Professional, Scientific, and Technical Services", "emp": 605.5}}}, {"FEATURE2": "County Seat", "NAME": "Thomaston", "POP_2010": "9170", "STATE_FIPS": "13", "LATITUDE": "32.8881879", "LONGITUDE": "-84.3265855", "qwi_geography": "45580", "industry": {"total": 10954.5, "1": {"name": "Educational Services", "emp": 1080}, "2": {"name": "Food Services and Drinking Places", "emp": 901.5}, "3": {"name": "Professional, Scientific, and Technical Services", "emp": 605.5}}}, {"FEATURE2": "County Seat", "NAME": "Thomasville", "POP_2010": "18413", "STATE_FIPS": "13", "LATITUDE": "30.8365815", "LONGITUDE": "-83.9787808", "qwi_geography": "45620", "industry": {"total": 10954.5, "1": {"name": "Educational Services", "emp": 1080}, "2": {"name": "Food Services and Drinking Places", "emp": 901.5}, "3": {"name": "Professional, Scientific, and Technical Services", "emp": 605.5}}}, {"FEATURE2": "County Seat", "NAME": "Tifton", "POP_2010": "16350", "STATE_FIPS": "13", "LATITUDE": "31.4504629", "LONGITUDE": "-83.5084973", "qwi_geography": "45700", "industry": {"total": 10954.5, "1": {"name": "Educational Services", "emp": 1080}, "2": {"name": "Food Services and Drinking Places", "emp": 901.5}, "3": {"name": "Professional, Scientific, and Technical Services", "emp": 605.5}}}, {"FEATURE2": "County Seat", "NAME": "Toccoa", "POP_2010": "8491", "STATE_FIPS": "13", "LATITUDE": "34.5773206", "LONGITUDE": "-83.3323851", "qwi_geography": "45740", "industry": {"total": 10954.5, "1": {"name": "Educational Services", "emp": 1080}, "2": {"name": "Food Services and Drinking Places", "emp": 901.5}, "3": {"name": "Professional, Scientific, and Technical Services", "emp": 605.5}}}, {"FEATURE2": "County Seat", "NAME": "Valdosta", "POP_2010": "54518", "STATE_FIPS": "13", "LATITUDE": "30.8327022", "LONGITUDE": "-83.2784851", "qwi_geography": "46660", "industry": {"total": 10954.5, "1": {"name": "Educational Services", "emp": 1080}, "2": {"name": "Food Services and Drinking Places", "emp": 901.5}, "3": {"name": "Professional, Scientific, and Technical Services", "emp": 605.5}}}, {"FEATURE2": "-999", "NAME": "Vidalia", "POP_2010": "10473", "STATE_FIPS": "13", "LATITUDE": "32.2176855", "LONGITUDE": "-82.4134614", "qwi_geography": "47080", "industry": {"total": 10954.5, "1": {"name": "Educational Services", "emp": 1080}, "2": {"name": "Food Services and Drinking Places", "emp": 901.5}, "3": {"name": "Professional, Scientific, and Technical Services", "emp": 605.5}}}, {"FEATURE2": "-999", "NAME": "Warner Robins", "POP_2010": "66588", "STATE_FIPS": "13", "LATITUDE": "32.6209775", "LONGITUDE": "-83.5999048", "qwi_geography": "47580", "industry": {"total": 10954.5, "1": {"name": "Educational Services", "emp": 1080}, "2": {"name": "Food Services and Drinking Places", "emp": 901.5}, "3": {"name": "Professional, Scientific, and Technical Services", "emp": 605.5}}}, {"FEATURE2": "County Seat", "NAME": "Waycross", "POP_2010": "14649", "STATE_FIPS": "13", "LATITUDE": "31.2135511", "LONGITUDE": "-82.3540178", "qwi_geography": "48180", "industry": {"total": 10954.5, "1": {"name": "Educational Services", "emp": 1080}, "2": {"name": "Food Services and Drinking Places", "emp": 901.5}, "3": {"name": "Professional, Scientific, and Technical Services", "emp": 605.5}}}, {"FEATURE2": "County Seat", "NAME": "Hilo", "POP_2010": "43263", "STATE_FIPS": "15", "LATITUDE": "19.722474", "LONGITUDE": "-155.0868273", "qwi_geography": "25900", "industry": {"total": 10954.5, "1": {"name": "Educational Services", "emp": 1080}, "2": {"name": "Food Services and Drinking Places", "emp": 901.5}, "3": {"name": "Professional, Scientific, and Technical Services", "emp": 605.5}}}, {"FEATURE2": "-999", "NAME": "Kahului", "POP_2010": "26337", "STATE_FIPS": "15", "LATITUDE": "20.8820295", "LONGITUDE": "-156.4735937", "qwi_geography": "27980", "industry": {"total": 10954.5, "1": {"name": "Educational Services", "emp": 1080}, "2": {"name": "Food Services and Drinking Places", "emp": 901.5}, "3": {"name": "Professional, Scientific, and Technical Services", "emp": 605.5}}}, {"FEATURE2": "County Seat", "NAME": "Blackfoot", "POP_2010": "11899", "STATE_FIPS": "16", "LATITUDE": "43.1904709", "LONGITUDE": "-112.3449773", "qwi_geography": "13940", "industry": {"total": 10954.5, "1": {"name": "Educational Services", "emp": 1080}, "2": {"name": "Food Services and Drinking Places", "emp": 901.5}, "3": {"name": "Professional, Scientific, and Technical Services", "emp": 605.5}}}, {"FEATURE2": "-999", "NAME": "Boise City", "POP_2010": "205671", "STATE_FIPS": "16", "LATITUDE": "43.5991149", "LONGITUDE": "-116.2306049", "qwi_geography": "14260", "industry": {"total": 10954.5, "1": {"name": "Educational Services", "emp": 1080}, "2": {"name": "Food Services and Drinking Places", "emp": 901.5}, "3": {"name": "Professional, Scientific, and Technical Services", "emp": 605.5}}}, {"FEATURE2": "County Seat", "NAME": "Burley", "POP_2010": "10345", "STATE_FIPS": "16", "LATITUDE": "42.5357428", "LONGITUDE": "-113.7927948", "qwi_geography": "15420", "industry": {"total": 10954.5, "1": {"name": "Educational Services", "emp": 1080}, "2": {"name": "Food Services and Drinking Places", "emp": 901.5}, "3": {"name": "Professional, Scientific, and Technical Services", "emp": 605.5}}}, {"FEATURE2": "County Seat", "NAME": "Hailey", "POP_2010": "7960", "STATE_FIPS": "16", "LATITUDE": "43.5196288", "LONGITUDE": "-114.3153245", "qwi_geography": "25200", "industry": {"total": 10954.5, "1": {"name": "Educational Services", "emp": 1080}, "2": {"name": "Food Services and Drinking Places", "emp": 901.5}, "3": {"name": "Professional, Scientific, and Technical Services", "emp": 605.5}}}, {"FEATURE2": "County Seat", "NAME": "Idaho Falls", "POP_2010": "56813", "STATE_FIPS": "16", "LATITUDE": "43.4930718324", "LONGITUDE": "-112.036292595", "qwi_geography": "26820", "industry": {"total": 10954.5, "1": {"name": "Educational Services", "emp": 1080}, "2": {"name": "Food Services and Drinking Places", "emp": 901.5}, "3": {"name": "Professional, Scientific, and Technical Services", "emp": 605.5}}}, {"FEATURE2": "County Seat", "NAME": "Lewiston", "POP_2010": "31894", "STATE_FIPS": "16", "LATITUDE": "46.4165506", "LONGITUDE": "-117.0176569", "qwi_geography": "30300", "industry": {"total": 10954.5, "1": {"name": "Educational Services", "emp": 1080}, "2": {"name": "Food Services and Drinking Places", "emp": 901.5}, "3": {"name": "Professional, Scientific, and Technical Services", "emp": 605.5}}}, {"FEATURE2": "County Seat", "NAME": "Moscow", "POP_2010": "23800", "STATE_FIPS": "16", "LATITUDE": "46.7323875", "LONGITUDE": "-117.0001651", "qwi_geography": "34140", "industry": {"total": 10954.5, "1": {"name": "Educational Services", "emp": 1080}, "2": {"name": "Food Services and Drinking Places", "emp": 901.5}, "3": {"name": "Professional, Scientific, and Technical Services", "emp": 605.5}}}, {"FEATURE2": "County Seat", "NAME": "Mountain Home", "POP_2010": "14206", "STATE_FIPS": "16", "LATITUDE": "43.1329504", "LONGITUDE": "-115.6911975", "qwi_geography": "34300", "industry": {"total": 10954.5, "1": {"name": "Educational Services", "emp": 1080}, "2": {"name": "Food Services and Drinking Places", "emp": 901.5}, "3": {"name": "Professional, Scientific, and Technical Services", "emp": 605.5}}}, {"FEATURE2": "County Seat", "NAME": "Pocatello", "POP_2010": "54255", "STATE_FIPS": "16", "LATITUDE": "42.8713032", "LONGITUDE": "-112.4455344", "qwi_geography": "38540", "industry": {"total": 10954.5, "1": {"name": "Educational Services", "emp": 1080}, "2": {"name": "Food Services and Drinking Places", "emp": 901.5}, "3": {"name": "Professional, Scientific, and Technical Services", "emp": 605.5}}}, {"FEATURE2": "County Seat", "NAME": "Rexburg", "POP_2010": "25484", "STATE_FIPS": "16", "LATITUDE": "43.8260227", "LONGITUDE": "-111.7896876", "qwi_geography": "39940", "industry": {"total": 10954.5, "1": {"name": "Educational Services", "emp": 1080}, "2": {"name": "Food Services and Drinking Places", "emp": 901.5}, "3": {"name": "Professional, Scientific, and Technical Services", "emp": 605.5}}}, {"FEATURE2": "County Seat", "NAME": "Sandpoint", "POP_2010": "7365", "STATE_FIPS": "16", "LATITUDE": "48.2765903", "LONGITUDE": "-116.5532476", "qwi_geography": "41760", "industry": {"total": 10954.5, "1": {"name": "Educational Services", "emp": 1080}, "2": {"name": "Food Services and Drinking Places", "emp": 901.5}, "3": {"name": "Professional, Scientific, and Technical Services", "emp": 605.5}}}, {"FEATURE2": "County Seat", "NAME": "Twin Falls", "POP_2010": "44125", "STATE_FIPS": "16", "LATITUDE": "42.5629668", "LONGITUDE": "-114.4608711", "qwi_geography": "46300", "industry": {"total": 10954.5, "1": {"name": "Educational Services", "emp": 1080}, "2": {"name": "Food Services and Drinking Places", "emp": 901.5}, "3": {"name": "Professional, Scientific, and Technical Services", "emp": 605.5}}}, {"FEATURE2": "County Seat", "NAME": "Bloomington", "POP_2010": "76610", "STATE_FIPS": "17", "LATITUDE": "40.4842027", "LONGITUDE": "-88.9936873", "qwi_geography": "14010", "industry": {"total": 10954.5, "1": {"name": "Educational Services", "emp": 1080}, "2": {"name": "Food Services and Drinking Places", "emp": 901.5}, "3": {"name": "Professional, Scientific, and Technical Services", "emp": 605.5}}}, {"FEATURE2": "-999", "NAME": "Burlington", "POP_2010": "618", "STATE_FIPS": "17", "LATITUDE": "42.0528038", "LONGITUDE": "-88.5481412", "qwi_geography": "15460", "industry": {"total": 10954.5, "1": {"name": "Educational Services", "emp": 1080}, "2": {"name": "Food Services and Drinking Places", "emp": 901.5}, "3": {"name": "Professional, Scientific, and Technical Services", "emp": 605.5}}}, {"FEATURE2": "-999", "NAME": "Canton", "POP_2010": "14704", "STATE_FIPS": "17", "LATITUDE": "40.5580945", "LONGITUDE": "-90.0351167", "qwi_geography": "15900", "industry": {"total": 10954.5, "1": {"name": "Educational Services", "emp": 1080}, "2": {"name": "Food Services and Drinking Places", "emp": 901.5}, "3": {"name": "Professional, Scientific, and Technical Services", "emp": 605.5}}}, {"FEATURE2": "-999", "NAME": "Carbondale", "POP_2010": "25902", "STATE_FIPS": "17", "LATITUDE": "37.7272727", "LONGITUDE": "-89.2167501", "qwi_geography": "16060", "industry": {"total": 10954.5, "1": {"name": "Educational Services", "emp": 1080}, "2": {"name": "Food Services and Drinking Places", "emp": 901.5}, "3": {"name": "Professional, Scientific, and Technical Services", "emp": 605.5}}}, {"FEATURE2": "-999", "NAME": "Centralia", "POP_2010": "13032", "STATE_FIPS": "17", "LATITUDE": "38.5250491", "LONGITUDE": "-89.1334037", "qwi_geography": "16460", "industry": {"total": 10954.5, "1": {"name": "Educational Services", "emp": 1080}, "2": {"name": "Food Services and Drinking Places", "emp": 901.5}, "3": {"name": "Professional, Scientific, and Technical Services", "emp": 605.5}}}, {"FEATURE2": "-999", "NAME": "Champaign", "POP_2010": "81055", "STATE_FIPS": "17", "LATITUDE": "40.1164205", "LONGITUDE": "-88.2433829", "qwi_geography": "16580", "industry": {"total": 10954.5, "1": {"name": "Educational Services", "emp": 1080}, "2": {"name": "Food Services and Drinking Places", "emp": 901.5}, "3": {"name": "Professional, Scientific, and Technical Services", "emp": 605.5}}}, {"FEATURE2": "County Seat", "NAME": "Charleston", "POP_2010": "21838", "STATE_FIPS": "17", "LATITUDE": "39.4961458", "LONGITUDE": "-88.1761521", "qwi_geography": "16660", "industry": {"total": 10954.5, "1": {"name": "Educational Services", "emp": 1080}, "2": {"name": "Food Services and Drinking Places", "emp": 901.5}, "3": {"name": "Professional, Scientific, and Technical Services", "emp": 605.5}}}, {"FEATURE2": "County Seat", "NAME": "Chicago", "POP_2010": "2695598", "STATE_FIPS": "17", "LATITUDE": "41.850033", "LONGITUDE": "-87.6500523", "qwi_geography": "16980", "industry": {"total": 10954.5, "1": {"name": "Educational Services", "emp": 1080}, "2": {"name": "Food Services and Drinking Places", "emp": 901.5}, "3": {"name": "Professional, Scientific, and Technical Services", "emp": 605.5}}}, {"FEATURE2": "County Seat", "NAME": "Danville", "POP_2010": "33027", "STATE_FIPS": "17", "LATITUDE": "40.124481", "LONGITUDE": "-87.6300207", "qwi_geography": "19180", "industry": {"total": 10954.5, "1": {"name": "Educational Services", "emp": 1080}, "2": {"name": "Food Services and Drinking Places", "emp": 901.5}, "3": {"name": "Professional, Scientific, and Technical Services", "emp": 605.5}}}, {"FEATURE2": "-999", "NAME": "Moline", "POP_2010": "43483", "STATE_FIPS": "17", "LATITUDE": "41.5067003", "LONGITUDE": "-90.5151342", "qwi_geography": "19340", "industry": {"total": 10954.5, "1": {"name": "Educational Services", "emp": 1080}, "2": {"name": "Food Services and Drinking Places", "emp": 901.5}, "3": {"name": "Professional, Scientific, and Technical Services", "emp": 605.5}}}, {"FEATURE2": "County Seat", "NAME": "Decatur", "POP_2010": "76122", "STATE_FIPS": "17", "LATITUDE": "39.8403147", "LONGITUDE": "-88.9548001", "qwi_geography": "19500", "industry": {"total": 10954.5, "1": {"name": "Educational Services", "emp": 1080}, "2": {"name": "Food Services and Drinking Places", "emp": 901.5}, "3": {"name": "Professional, Scientific, and Technical Services", "emp": 605.5}}}, {"FEATURE2": "County Seat", "NAME": "Dixon", "POP_2010": "15733", "STATE_FIPS": "17", "LATITUDE": "41.8389213", "LONGITUDE": "-89.4795478", "qwi_geography": "19940", "industry": {"total": 10954.5, "1": {"name": "Educational Services", "emp": 1080}, "2": {"name": "Food Services and Drinking Places", "emp": 901.5}, "3": {"name": "Professional, Scientific, and Technical Services", "emp": 605.5}}}, {"FEATURE2": "County Seat", "NAME": "Effingham", "POP_2010": "12328", "STATE_FIPS": "17", "LATITUDE": "39.1200418", "LONGITUDE": "-88.5433829", "qwi_geography": "20820", "industry": {"total": 10954.5, "1": {"name": "Educational Services", "emp": 1080}, "2": {"name": "Food Services and Drinking Places", "emp": 901.5}, "3": {"name": "Professional, Scientific, and Technical Services", "emp": 605.5}}}, {"FEATURE2": "County Seat", "NAME": "Freeport", "POP_2010": "25638", "STATE_FIPS": "17", "LATITUDE": "42.2966861", "LONGITUDE": "-89.6212271", "qwi_geography": "23300", "industry": {"total": 10954.5, "1": {"name": "Educational Services", "emp": 1080}, "2": {"name": "Food Services and Drinking Places", "emp": 901.5}, "3": {"name": "Professional, Scientific, and Technical Services", "emp": 605.5}}}, {"FEATURE2": "County Seat", "NAME": "Galesburg", "POP_2010": "32195", "STATE_FIPS": "17", "LATITUDE": "40.9478158", "LONGITUDE": "-90.3712395", "qwi_geography": "23660", "industry": {"total": 10954.5, "1": {"name": "Educational Services", "emp": 1080}, "2": {"name": "Food Services and Drinking Places", "emp": 901.5}, "3": {"name": "Professional, Scientific, and Technical Services", "emp": 605.5}}}, {"FEATURE2": "County Seat", "NAME": "Jacksonville", "POP_2010": "19446", "STATE_FIPS": "17", "LATITUDE": "39.733936", "LONGITUDE": "-90.2290098", "qwi_geography": "27300", "industry": {"total": 10954.5, "1": {"name": "Educational Services", "emp": 1080}, "2": {"name": "Food Services and Drinking Places", "emp": 901.5}, "3": {"name": "Professional, Scientific, and Technical Services", "emp": 605.5}}}, {"FEATURE2": "County Seat", "NAME": "Kankakee", "POP_2010": "27537", "STATE_FIPS": "17", "LATITUDE": "41.1200325", "LONGITUDE": "-87.8611531", "qwi_geography": "28100", "industry": {"total": 10954.5, "1": {"name": "Educational Services", "emp": 1080}, "2": {"name": "Food Services and Drinking Places", "emp": 901.5}, "3": {"name": "Professional, Scientific, and Technical Services", "emp": 605.5}}}, {"FEATURE2": "County Seat", "NAME": "Lincoln", "POP_2010": "14504", "STATE_FIPS": "17", "LATITUDE": "40.1483768", "LONGITUDE": "-89.3648183", "qwi_geography": "30660", "industry": {"total": 10954.5, "1": {"name": "Educational Services", "emp": 1080}, "2": {"name": "Food Services and Drinking Places", "emp": 901.5}, "3": {"name": "Professional, Scientific, and Technical Services", "emp": 605.5}}}, {"FEATURE2": "County Seat", "NAME": "Macomb", "POP_2010": "19288", "STATE_FIPS": "17", "LATITUDE": "40.4592076", "LONGITUDE": "-90.6717971", "qwi_geography": "31380", "industry": {"total": 10954.5, "1": {"name": "Educational Services", "emp": 1080}, "2": {"name": "Food Services and Drinking Places", "emp": 901.5}, "3": {"name": "Professional, Scientific, and Technical Services", "emp": 605.5}}}, {"FEATURE2": "County Seat", "NAME": "Mount Vernon", "POP_2010": "15277", "STATE_FIPS": "17", "LATITUDE": "38.3172715", "LONGITUDE": "-88.9031201", "qwi_geography": "34500", "industry": {"total": 10954.5, "1": {"name": "Educational Services", "emp": 1080}, "2": {"name": "Food Services and Drinking Places", "emp": 901.5}, "3": {"name": "Professional, Scientific, and Technical Services", "emp": 605.5}}}, {"FEATURE2": "County Seat", "NAME": "Ottawa", "POP_2010": "18768", "STATE_FIPS": "17", "LATITUDE": "41.3455892", "LONGITUDE": "-88.8425769", "qwi_geography": "36860", "industry": {"total": 10954.5, "1": {"name": "Educational Services", "emp": 1080}, "2": {"name": "Food Services and Drinking Places", "emp": 901.5}, "3": {"name": "Professional, Scientific, and Technical Services", "emp": 605.5}}}, {"FEATURE2": "County Seat", "NAME": "Peoria", "POP_2010": "115007", "STATE_FIPS": "17", "LATITUDE": "40.6936488", "LONGITUDE": "-89.5889864", "qwi_geography": "37900", "industry": {"total": 10954.5, "1": {"name": "Educational Services", "emp": 1080}, "2": {"name": "Food Services and Drinking Places", "emp": 901.5}, "3": {"name": "Professional, Scientific, and Technical Services", "emp": 605.5}}}, {"FEATURE2": "County Seat", "NAME": "Pontiac", "POP_2010": "11931", "STATE_FIPS": "17", "LATITUDE": "40.8808666", "LONGITUDE": "-88.6297839", "qwi_geography": "38700", "industry": {"total": 10954.5, "1": {"name": "Educational Services", "emp": 1080}, "2": {"name": "Food Services and Drinking Places", "emp": 901.5}, "3": {"name": "Professional, Scientific, and Technical Services", "emp": 605.5}}}, {"FEATURE2": "County Seat", "NAME": "Quincy", "POP_2010": "40633", "STATE_FIPS": "17", "LATITUDE": "39.9356016", "LONGITUDE": "-91.4098727", "qwi_geography": "39500", "industry": {"total": 10954.5, "1": {"name": "Educational Services", "emp": 1080}, "2": {"name": "Food Services and Drinking Places", "emp": 901.5}, "3": {"name": "Professional, Scientific, and Technical Services", "emp": 605.5}}}, {"FEATURE2": "-999", "NAME": "Rochelle", "POP_2010": "9574", "STATE_FIPS": "17", "LATITUDE": "41.9239178", "LONGITUDE": "-89.0687074", "qwi_geography": "40300", "industry": {"total": 10954.5, "1": {"name": "Educational Services", "emp": 1080}, "2": {"name": "Food Services and Drinking Places", "emp": 901.5}, "3": {"name": "Professional, Scientific, and Technical Services", "emp": 605.5}}}, {"FEATURE2": "County Seat", "NAME": "Rockford", "POP_2010": "152871", "STATE_FIPS": "17", "LATITUDE": "42.2711311", "LONGITUDE": "-89.0939952", "qwi_geography": "40420", "industry": {"total": 10954.5, "1": {"name": "Educational Services", "emp": 1080}, "2": {"name": "Food Services and Drinking Places", "emp": 901.5}, "3": {"name": "Professional, Scientific, and Technical Services", "emp": 605.5}}}, {"FEATURE2": "State Capital County Seat", "NAME": "Springfield", "POP_2010": "116250", "STATE_FIPS": "17", "LATITUDE": "39.8017171", "LONGITUDE": "-89.6437107", "qwi_geography": "44100", "industry": {"total": 10954.5, "1": {"name": "Educational Services", "emp": 1080}, "2": {"name": "Food Services and Drinking Places", "emp": 901.5}, "3": {"name": "Professional, Scientific, and Technical Services", "emp": 605.5}}}, {"FEATURE2": "-999", "NAME": "Sterling", "POP_2010": "15370", "STATE_FIPS": "17", "LATITUDE": "41.788642", "LONGITUDE": "-89.6962194", "qwi_geography": "44580", "industry": {"total": 10954.5, "1": {"name": "Educational Services", "emp": 1080}, "2": {"name": "Food Services and Drinking Places", "emp": 901.5}, "3": {"name": "Professional, Scientific, and Technical Services", "emp": 605.5}}}, {"FEATURE2": "County Seat", "NAME": "Taylorville", "POP_2010": "11246", "STATE_FIPS": "17", "LATITUDE": "39.548935", "LONGITUDE": "-89.294533", "qwi_geography": "45380", "industry": {"total": 10954.5, "1": {"name": "Educational Services", "emp": 1080}, "2": {"name": "Food Services and Drinking Places", "emp": 901.5}, "3": {"name": "Professional, Scientific, and Technical Services", "emp": 605.5}}}, {"FEATURE2": "County Seat", "NAME": "Angola", "POP_2010": "8612", "STATE_FIPS": "18", "LATITUDE": "41.6347726", "LONGITUDE": "-84.9994088", "qwi_geography": "11420", "industry": {"total": 10954.5, "1": {"name": "Educational Services", "emp": 1080}, "2": {"name": "Food Services and Drinking Places", "emp": 901.5}, "3": {"name": "Professional, Scientific, and Technical Services", "emp": 605.5}}}, {"FEATURE2": "County Seat", "NAME": "Auburn", "POP_2010": "12731", "STATE_FIPS": "18", "LATITUDE": "41.3669942", "LONGITUDE": "-85.0588575", "qwi_geography": "12140", "industry": {"total": 10954.5, "1": {"name": "Educational Services", "emp": 1080}, "2": {"name": "Food Services and Drinking Places", "emp": 901.5}, "3": {"name": "Professional, Scientific, and Technical Services", "emp": 605.5}}}, {"FEATURE2": "County Seat", "NAME": "Bedford", "POP_2010": "13413", "STATE_FIPS": "18", "LATITUDE": "38.8611619", "LONGITUDE": "-86.4872149", "qwi_geography": "13260", "industry": {"total": 10954.5, "1": {"name": "Educational Services", "emp": 1080}, "2": {"name": "Food Services and Drinking Places", "emp": 901.5}, "3": {"name": "Professional, Scientific, and Technical Services", "emp": 605.5}}}, {"FEATURE2": "County Seat", "NAME": "Bloomington", "POP_2010": "80405", "STATE_FIPS": "18", "LATITUDE": "39.165325", "LONGITUDE": "-86.5263857", "qwi_geography": "14020", "industry": {"total": 10954.5, "1": {"name": "Educational Services", "emp": 1080}, "2": {"name": "Food Services and Drinking Places", "emp": 901.5}, "3": {"name": "Professional, Scientific, and Technical Services", "emp": 605.5}}}, {"FEATURE2": "County Seat", "NAME": "Columbus", "POP_2010": "44061", "STATE_FIPS": "18", "LATITUDE": "39.2014405", "LONGITUDE": "-85.9213796", "qwi_geography": "18020", "industry": {"total": 10954.5, "1": {"name": "Educational Services", "emp": 1080}, "2": {"name": "Food Services and Drinking Places", "emp": 901.5}, "3": {"name": "Professional, Scientific, and Technical Services", "emp": 605.5}}}, {"FEATURE2": "County Seat", "NAME": "Connersville", "POP_2010": "13481", "STATE_FIPS": "18", "LATITUDE": "39.6411589", "LONGITUDE": "-85.1410748", "qwi_geography": "18220", "industry": {"total": 10954.5, "1": {"name": "Educational Services", "emp": 1080}, "2": {"name": "Food Services and Drinking Places", "emp": 901.5}, "3": {"name": "Professional, Scientific, and Technical Services", "emp": 605.5}}}, {"FEATURE2": "County Seat", "NAME": "Crawfordsville", "POP_2010": "15915", "STATE_FIPS": "18", "LATITUDE": "40.0411536", "LONGITUDE": "-86.8744516", "qwi_geography": "18820", "industry": {"total": 10954.5, "1": {"name": "Educational Services", "emp": 1080}, "2": {"name": "Food Services and Drinking Places", "emp": 901.5}, "3": {"name": "Professional, Scientific, and Technical Services", "emp": 605.5}}}, {"FEATURE2": "County Seat", "NAME": "Decatur", "POP_2010": "9405", "STATE_FIPS": "18", "LATITUDE": "40.830603", "LONGITUDE": "-84.9291329", "qwi_geography": "19540", "industry": {"total": 10954.5, "1": {"name": "Educational Services", "emp": 1080}, "2": {"name": "Food Services and Drinking Places", "emp": 901.5}, "3": {"name": "Professional, Scientific, and Technical Services", "emp": 605.5}}}, {"FEATURE2": "-999", "NAME": "Elkhart", "POP_2010": "50949", "STATE_FIPS": "18", "LATITUDE": "41.6819935", "LONGITUDE": "-85.9766671", "qwi_geography": "21140", "industry": {"total": 10954.5, "1": {"name": "Educational Services", "emp": 1080}, "2": {"name": "Food Services and Drinking Places", "emp": 901.5}, "3": {"name": "Professional, Scientific, and Technical Services", "emp": 605.5}}}, {"FEATURE2": "County Seat", "NAME": "Evansville", "POP_2010": "117429", "STATE_FIPS": "18", "LATITUDE": "37.9747644", "LONGITUDE": "-87.5558482", "qwi_geography": "21780", "industry": {"total": 10954.5, "1": {"name": "Educational Services", "emp": 1080}, "2": {"name": "Food Services and Drinking Places", "emp": 901.5}, "3": {"name": "Professional, Scientific, and Technical Services", "emp": 605.5}}}, {"FEATURE2": "County Seat", "NAME": "Fort Wayne", "POP_2010": "253691", "STATE_FIPS": "18", "LATITUDE": "41.1306041", "LONGITUDE": "-85.1288597", "qwi_geography": "23060", "industry": {"total": 10954.5, "1": {"name": "Educational Services", "emp": 1080}, "2": {"name": "Food Services and Drinking Places", "emp": 901.5}, "3": {"name": "Professional, Scientific, and Technical Services", "emp": 605.5}}}, {"FEATURE2": "County Seat", "NAME": "Frankfort", "POP_2010": "16422", "STATE_FIPS": "18", "LATITUDE": "40.2794809", "LONGITUDE": "-86.5108355", "qwi_geography": "23140", "industry": {"total": 10954.5, "1": {"name": "Educational Services", "emp": 1080}, "2": {"name": "Food Services and Drinking Places", "emp": 901.5}, "3": {"name": "Professional, Scientific, and Technical Services", "emp": 605.5}}}, {"FEATURE2": "County Seat", "NAME": "Greensburg", "POP_2010": "11492", "STATE_FIPS": "18", "LATITUDE": "39.3372722", "LONGITUDE": "-85.483581", "qwi_geography": "24700", "industry": {"total": 10954.5, "1": {"name": "Educational Services", "emp": 1080}, "2": {"name": "Food Services and Drinking Places", "emp": 901.5}, "3": {"name": "Professional, Scientific, and Technical Services", "emp": 605.5}}}, {"FEATURE2": "County Seat", "NAME": "Huntington", "POP_2010": "17391", "STATE_FIPS": "18", "LATITUDE": "40.8831011", "LONGITUDE": "-85.497476", "qwi_geography": "26540", "industry": {"total": 10954.5, "1": {"name": "Educational Services", "emp": 1080}, "2": {"name": "Food Services and Drinking Places", "emp": 901.5}, "3": {"name": "Professional, Scientific, and Technical Services", "emp": 605.5}}}, {"FEATURE2": "State Capital County Seat", "NAME": "Indianapolis", "POP_2010": "820445", "STATE_FIPS": "18", "LATITUDE": "39.7683765", "LONGITUDE": "-86.1580423", "qwi_geography": "26900", "industry": {"total": 10954.5, "1": {"name": "Educational Services", "emp": 1080}, "2": {"name": "Food Services and Drinking Places", "emp": 901.5}, "3": {"name": "Professional, Scientific, and Technical Services", "emp": 605.5}}}, {"FEATURE2": "County Seat", "NAME": "Jasper", "POP_2010": "15038", "STATE_FIPS": "18", "LATITUDE": "38.3914418", "LONGITUDE": "-86.9311094", "qwi_geography": "27540", "industry": {"total": 10954.5, "1": {"name": "Educational Services", "emp": 1080}, "2": {"name": "Food Services and Drinking Places", "emp": 901.5}, "3": {"name": "Professional, Scientific, and Technical Services", "emp": 605.5}}}, {"FEATURE2": "-999", "NAME": "Kendallville", "POP_2010": "9862", "STATE_FIPS": "18", "LATITUDE": "41.4414385", "LONGITUDE": "-85.2649754", "qwi_geography": "28340", "industry": {"total": 10954.5, "1": {"name": "Educational Services", "emp": 1080}, "2": {"name": "Food Services and Drinking Places", "emp": 901.5}, "3": {"name": "Professional, Scientific, and Technical Services", "emp": 605.5}}}, {"FEATURE2": "County Seat", "NAME": "Kokomo", "POP_2010": "45468", "STATE_FIPS": "18", "LATITUDE": "40.486427", "LONGITUDE": "-86.1336033", "qwi_geography": "29020", "industry": {"total": 10954.5, "1": {"name": "Educational Services", "emp": 1080}, "2": {"name": "Food Services and Drinking Places", "emp": 901.5}, "3": {"name": "Professional, Scientific, and Technical Services", "emp": 605.5}}}, {"FEATURE2": "County Seat", "NAME": "Lafayette", "POP_2010": "67140", "STATE_FIPS": "18", "LATITUDE": "40.4167022", "LONGITUDE": "-86.8752869", "qwi_geography": "29200", "industry": {"total": 10954.5, "1": {"name": "Educational Services", "emp": 1080}, "2": {"name": "Food Services and Drinking Places", "emp": 901.5}, "3": {"name": "Professional, Scientific, and Technical Services", "emp": 605.5}}}, {"FEATURE2": "County Seat", "NAME": "Logansport", "POP_2010": "18396", "STATE_FIPS": "18", "LATITUDE": "40.7544843", "LONGITUDE": "-86.3566659", "qwi_geography": "30900", "industry": {"total": 10954.5, "1": {"name": "Educational Services", "emp": 1080}, "2": {"name": "Food Services and Drinking Places", "emp": 901.5}, "3": {"name": "Professional, Scientific, and Technical Services", "emp": 605.5}}}, {"FEATURE2": "County Seat", "NAME": "Madison", "POP_2010": "11967", "STATE_FIPS": "18", "LATITUDE": "38.7358933", "LONGITUDE": "-85.3799577", "qwi_geography": "31500", "industry": {"total": 10954.5, "1": {"name": "Educational Services", "emp": 1080}, "2": {"name": "Food Services and Drinking Places", "emp": 901.5}, "3": {"name": "Professional, Scientific, and Technical Services", "emp": 605.5}}}, {"FEATURE2": "County Seat", "NAME": "Marion", "POP_2010": "29948", "STATE_FIPS": "18", "LATITUDE": "40.5583739", "LONGITUDE": "-85.6591442", "qwi_geography": "31980", "industry": {"total": 10954.5, "1": {"name": "Educational Services", "emp": 1080}, "2": {"name": "Food Services and Drinking Places", "emp": 901.5}, "3": {"name": "Professional, Scientific, and Technical Services", "emp": 605.5}}}, {"FEATURE2": "-999", "NAME": "Michigan City", "POP_2010": "31479", "STATE_FIPS": "18", "LATITUDE": "41.7075394", "LONGITUDE": "-86.8950297", "qwi_geography": "33140", "industry": {"total": 10954.5, "1": {"name": "Educational Services", "emp": 1080}, "2": {"name": "Food Services and Drinking Places", "emp": 901.5}, "3": {"name": "Professional, Scientific, and Technical Services", "emp": 605.5}}}, {"FEATURE2": "County Seat", "NAME": "Muncie", "POP_2010": "70085", "STATE_FIPS": "18", "LATITUDE": "40.1933767", "LONGITUDE": "-85.3863599", "qwi_geography": "34620", "industry": {"total": 10954.5, "1": {"name": "Educational Services", "emp": 1080}, "2": {"name": "Food Services and Drinking Places", "emp": 901.5}, "3": {"name": "Professional, Scientific, and Technical Services", "emp": 605.5}}}, {"FEATURE2": "County Seat", "NAME": "New Castle", "POP_2010": "18114", "STATE_FIPS": "18", "LATITUDE": "39.9289351", "LONGITUDE": "-85.3702477", "qwi_geography": "35220", "industry": {"total": 10954.5, "1": {"name": "Educational Services", "emp": 1080}, "2": {"name": "Food Services and Drinking Places", "emp": 901.5}, "3": {"name": "Professional, Scientific, and Technical Services", "emp": 605.5}}}, {"FEATURE2": "-999", "NAME": "North Vernon", "POP_2010": "6728", "STATE_FIPS": "18", "LATITUDE": "39.006165", "LONGITUDE": "-85.6235796", "qwi_geography": "35860", "industry": {"total": 10954.5, "1": {"name": "Educational Services", "emp": 1080}, "2": {"name": "Food Services and Drinking Places", "emp": 901.5}, "3": {"name": "Professional, Scientific, and Technical Services", "emp": 605.5}}}, {"FEATURE2": "County Seat", "NAME": "Peru", "POP_2010": "11417", "STATE_FIPS": "18", "LATITUDE": "40.7536528", "LONGITUDE": "-86.0688811", "qwi_geography": "37940", "industry": {"total": 10954.5, "1": {"name": "Educational Services", "emp": 1080}, "2": {"name": "Food Services and Drinking Places", "emp": 901.5}, "3": {"name": "Professional, Scientific, and Technical Services", "emp": 605.5}}}, {"FEATURE2": "County Seat", "NAME": "Plymouth", "POP_2010": "10033", "STATE_FIPS": "18", "LATITUDE": "41.3436555", "LONGITUDE": "-86.3097278", "qwi_geography": "38500", "industry": {"total": 10954.5, "1": {"name": "Educational Services", "emp": 1080}, "2": {"name": "Food Services and Drinking Places", "emp": 901.5}, "3": {"name": "Professional, Scientific, and Technical Services", "emp": 605.5}}}, {"FEATURE2": "County Seat", "NAME": "Richmond", "POP_2010": "36812", "STATE_FIPS": "18", "LATITUDE": "39.8289369", "LONGITUDE": "-84.8902383", "qwi_geography": "39980", "industry": {"total": 10954.5, "1": {"name": "Educational Services", "emp": 1080}, "2": {"name": "Food Services and Drinking Places", "emp": 901.5}, "3": {"name": "Professional, Scientific, and Technical Services", "emp": 605.5}}}, {"FEATURE2": "-999", "NAME": "Seymour", "POP_2010": "17503", "STATE_FIPS": "18", "LATITUDE": "38.9592201", "LONGITUDE": "-85.8902547", "qwi_geography": "42980", "industry": {"total": 10954.5, "1": {"name": "Educational Services", "emp": 1080}, "2": {"name": "Food Services and Drinking Places", "emp": 901.5}, "3": {"name": "Professional, Scientific, and Technical Services", "emp": 605.5}}}, {"FEATURE2": "County Seat", "NAME": "South Bend", "POP_2010": "101168", "STATE_FIPS": "18", "LATITUDE": "41.6833813", "LONGITUDE": "-86.2500066", "qwi_geography": "43780", "industry": {"total": 10954.5, "1": {"name": "Educational Services", "emp": 1080}, "2": {"name": "Food Services and Drinking Places", "emp": 901.5}, "3": {"name": "Professional, Scientific, and Technical Services", "emp": 605.5}}}, {"FEATURE2": "County Seat", "NAME": "Terre Haute", "POP_2010": "60785", "STATE_FIPS": "18", "LATITUDE": "39.4667034", "LONGITUDE": "-87.4139092", "qwi_geography": "45460", "industry": {"total": 10954.5, "1": {"name": "Educational Services", "emp": 1080}, "2": {"name": "Food Services and Drinking Places", "emp": 901.5}, "3": {"name": "Professional, Scientific, and Technical Services", "emp": 605.5}}}, {"FEATURE2": "County Seat", "NAME": "Vincennes", "POP_2010": "18423", "STATE_FIPS": "18", "LATITUDE": "38.6772691", "LONGITUDE": "-87.5286325", "qwi_geography": "47180", "industry": {"total": 10954.5, "1": {"name": "Educational Services", "emp": 1080}, "2": {"name": "Food Services and Drinking Places", "emp": 901.5}, "3": {"name": "Professional, Scientific, and Technical Services", "emp": 605.5}}}, {"FEATURE2": "County Seat", "NAME": "Wabash", "POP_2010": "10666", "STATE_FIPS": "18", "LATITUDE": "40.797821", "LONGITUDE": "-85.8205411", "qwi_geography": "47340", "industry": {"total": 10954.5, "1": {"name": "Educational Services", "emp": 1080}, "2": {"name": "Food Services and Drinking Places", "emp": 901.5}, "3": {"name": "Professional, Scientific, and Technical Services", "emp": 605.5}}}, {"FEATURE2": "County Seat", "NAME": "Warsaw", "POP_2010": "13559", "STATE_FIPS": "18", "LATITUDE": "41.2381001", "LONGITUDE": "-85.8530469", "qwi_geography": "47700", "industry": {"total": 10954.5, "1": {"name": "Educational Services", "emp": 1080}, "2": {"name": "Food Services and Drinking Places", "emp": 901.5}, "3": {"name": "Professional, Scientific, and Technical Services", "emp": 605.5}}}, {"FEATURE2": "County Seat", "NAME": "Washington", "POP_2010": "11509", "STATE_FIPS": "18", "LATITUDE": "38.6592152", "LONGITUDE": "-87.172789", "qwi_geography": "47780", "industry": {"total": 10954.5, "1": {"name": "Educational Services", "emp": 1080}, "2": {"name": "Food Services and Drinking Places", "emp": 901.5}, "3": {"name": "Professional, Scientific, and Technical Services", "emp": 605.5}}}, {"FEATURE2": "-999", "NAME": "Ames", "POP_2010": "58965", "STATE_FIPS": "19", "LATITUDE": "42.0347081", "LONGITUDE": "-93.6199402", "qwi_geography": "11180", "industry": {"total": 10954.5, "1": {"name": "Educational Services", "emp": 1080}, "2": {"name": "Food Services and Drinking Places", "emp": 901.5}, "3": {"name": "Professional, Scientific, and Technical Services", "emp": 605.5}}}, {"FEATURE2": "County Seat", "NAME": "Boone", "POP_2010": "12661", "STATE_FIPS": "19", "LATITUDE": "42.0597047", "LONGITUDE": "-93.8802273", "qwi_geography": "14340", "industry": {"total": 10954.5, "1": {"name": "Educational Services", "emp": 1080}, "2": {"name": "Food Services and Drinking Places", "emp": 901.5}, "3": {"name": "Professional, Scientific, and Technical Services", "emp": 605.5}}}, {"FEATURE2": "County Seat", "NAME": "Burlington", "POP_2010": "25663", "STATE_FIPS": "19", "LATITUDE": "40.8075391", "LONGITUDE": "-91.1129233", "qwi_geography": "15460", "industry": {"total": 10954.5, "1": {"name": "Educational Services", "emp": 1080}, "2": {"name": "Food Services and Drinking Places", "emp": 901.5}, "3": {"name": "Professional, Scientific, and Technical Services", "emp": 605.5}}}, {"FEATURE2": "County Seat", "NAME": "Carroll", "POP_2010": "10103", "STATE_FIPS": "19", "LATITUDE": "42.0658184", "LONGITUDE": "-94.8669304", "qwi_geography": "16140", "industry": {"total": 10954.5, "1": {"name": "Educational Services", "emp": 1080}, "2": {"name": "Food Services and Drinking Places", "emp": 901.5}, "3": {"name": "Professional, Scientific, and Technical Services", "emp": 605.5}}}, {"FEATURE2": "County Seat", "NAME": "Cedar Rapids", "POP_2010": "126326", "STATE_FIPS": "19", "LATITUDE": "42.0083328", "LONGITUDE": "-91.6440683", "qwi_geography": "16300", "industry": {"total": 10954.5, "1": {"name": "Educational Services", "emp": 1080}, "2": {"name": "Food Services and Drinking Places", "emp": 901.5}, "3": {"name": "Professional, Scientific, and Technical Services", "emp": 605.5}}}, {"FEATURE2": "County Seat", "NAME": "Clinton", "POP_2010": "26885", "STATE_FIPS": "19", "LATITUDE": "41.8444735", "LONGITUDE": "-90.1887379", "qwi_geography": "17540", "industry": {"total": 10954.5, "1": {"name": "Educational Services", "emp": 1080}, "2": {"name": "Food Services and Drinking Places", "emp": 901.5}, "3": {"name": "Professional, Scientific, and Technical Services", "emp": 605.5}}}, {"FEATURE2": "County Seat", "NAME": "Davenport", "POP_2010": "99685", "STATE_FIPS": "19", "LATITUDE": "41.5236437", "LONGITUDE": "-90.5776367", "qwi_geography": "19340", "industry": {"total": 10954.5, "1": {"name": "Educational Services", "emp": 1080}, "2": {"name": "Food Services and Drinking Places", "emp": 901.5}, "3": {"name": "Professional, Scientific, and Technical Services", "emp": 605.5}}}, {"FEATURE2": "State Capital County Seat", "NAME": "Des Moines", "POP_2010": "203433", "STATE_FIPS": "19", "LATITUDE": "41.6005448", "LONGITUDE": "-93.6091064", "qwi_geography": "19780", "industry": {"total": 10954.5, "1": {"name": "Educational Services", "emp": 1080}, "2": {"name": "Food Services and Drinking Places", "emp": 901.5}, "3": {"name": "Professional, Scientific, and Technical Services", "emp": 605.5}}}, {"FEATURE2": "County Seat", "NAME": "Dubuque", "POP_2010": "57637", "STATE_FIPS": "19", "LATITUDE": "42.5005583", "LONGITUDE": "-90.6645718", "qwi_geography": "20220", "industry": {"total": 10954.5, "1": {"name": "Educational Services", "emp": 1080}, "2": {"name": "Food Services and Drinking Places", "emp": 901.5}, "3": {"name": "Professional, Scientific, and Technical Services", "emp": 605.5}}}, {"FEATURE2": "County Seat", "NAME": "Fairfield", "POP_2010": "9464", "STATE_FIPS": "19", "LATITUDE": "41.0086312", "LONGITUDE": "-91.9626727", "qwi_geography": "21840", "industry": {"total": 10954.5, "1": {"name": "Educational Services", "emp": 1080}, "2": {"name": "Food Services and Drinking Places", "emp": 901.5}, "3": {"name": "Professional, Scientific, and Technical Services", "emp": 605.5}}}, {"FEATURE2": "County Seat", "NAME": "Fort Dodge", "POP_2010": "25206", "STATE_FIPS": "19", "LATITUDE": "42.4974694", "LONGITUDE": "-94.1680158", "qwi_geography": "22700", "industry": {"total": 10954.5, "1": {"name": "Educational Services", "emp": 1080}, "2": {"name": "Food Services and Drinking Places", "emp": 901.5}, "3": {"name": "Professional, Scientific, and Technical Services", "emp": 605.5}}}, {"FEATURE2": "County Seat", "NAME": "Fort Madison", "POP_2010": "11051", "STATE_FIPS": "19", "LATITUDE": "40.6297632", "LONGITUDE": "-91.3151506", "qwi_geography": "22800", "industry": {"total": 10954.5, "1": {"name": "Educational Services", "emp": 1080}, "2": {"name": "Food Services and Drinking Places", "emp": 901.5}, "3": {"name": "Professional, Scientific, and Technical Services", "emp": 605.5}}}, {"FEATURE2": "County Seat", "NAME": "Iowa City", "POP_2010": "67862", "STATE_FIPS": "19", "LATITUDE": "41.6611277", "LONGITUDE": "-91.5301683", "qwi_geography": "26980", "industry": {"total": 10954.5, "1": {"name": "Educational Services", "emp": 1080}, "2": {"name": "Food Services and Drinking Places", "emp": 901.5}, "3": {"name": "Professional, Scientific, and Technical Services", "emp": 605.5}}}, {"FEATURE2": "County Seat", "NAME": "Marshalltown", "POP_2010": "27552", "STATE_FIPS": "19", "LATITUDE": "42.0494323", "LONGITUDE": "-92.9079774", "qwi_geography": "32260", "industry": {"total": 10954.5, "1": {"name": "Educational Services", "emp": 1080}, "2": {"name": "Food Services and Drinking Places", "emp": 901.5}, "3": {"name": "Professional, Scientific, and Technical Services", "emp": 605.5}}}, {"FEATURE2": "County Seat", "NAME": "Mason City", "POP_2010": "28079", "STATE_FIPS": "19", "LATITUDE": "43.1535728", "LONGITUDE": "-93.2010367", "qwi_geography": "32380", "industry": {"total": 10954.5, "1": {"name": "Educational Services", "emp": 1080}, "2": {"name": "Food Services and Drinking Places", "emp": 901.5}, "3": {"name": "Professional, Scientific, and Technical Services", "emp": 605.5}}}, {"FEATURE2": "County Seat", "NAME": "Muscatine", "POP_2010": "22886", "STATE_FIPS": "19", "LATITUDE": "41.424473", "LONGITUDE": "-91.0432051", "qwi_geography": "34700", "industry": {"total": 10954.5, "1": {"name": "Educational Services", "emp": 1080}, "2": {"name": "Food Services and Drinking Places", "emp": 901.5}, "3": {"name": "Professional, Scientific, and Technical Services", "emp": 605.5}}}, {"FEATURE2": "County Seat", "NAME": "Newton", "POP_2010": "15254", "STATE_FIPS": "19", "LATITUDE": "41.6997129", "LONGITUDE": "-93.0479756", "qwi_geography": "35500", "industry": {"total": 10954.5, "1": {"name": "Educational Services", "emp": 1080}, "2": {"name": "Food Services and Drinking Places", "emp": 901.5}, "3": {"name": "Professional, Scientific, and Technical Services", "emp": 605.5}}}, {"FEATURE2": "County Seat", "NAME": "Council Bluffs", "POP_2010": "62230", "STATE_FIPS": "19", "LATITUDE": "41.2619444", "LONGITUDE": "-95.8608333", "qwi_geography": "36540", "industry": {"total": 10954.5, "1": {"name": "Educational Services", "emp": 1080}, "2": {"name": "Food Services and Drinking Places", "emp": 901.5}, "3": {"name": "Professional, Scientific, and Technical Services", "emp": 605.5}}}, {"FEATURE2": "County Seat", "NAME": "Oskaloosa", "POP_2010": "11463", "STATE_FIPS": "19", "LATITUDE": "41.296395", "LONGITUDE": "-92.6443593", "qwi_geography": "36820", "industry": {"total": 10954.5, "1": {"name": "Educational Services", "emp": 1080}, "2": {"name": "Food Services and Drinking Places", "emp": 901.5}, "3": {"name": "Professional, Scientific, and Technical Services", "emp": 605.5}}}, {"FEATURE2": "County Seat", "NAME": "Ottumwa", "POP_2010": "25023", "STATE_FIPS": "19", "LATITUDE": "41.0200145", "LONGITUDE": "-92.4112963", "qwi_geography": "36900", "industry": {"total": 10954.5, "1": {"name": "Educational Services", "emp": 1080}, "2": {"name": "Food Services and Drinking Places", "emp": 901.5}, "3": {"name": "Professional, Scientific, and Technical Services", "emp": 605.5}}}, {"FEATURE2": "-999", "NAME": "Pella", "POP_2010": "10352", "STATE_FIPS": "19", "LATITUDE": "41.4080534", "LONGITUDE": "-92.9163091", "qwi_geography": "37800", "industry": {"total": 10954.5, "1": {"name": "Educational Services", "emp": 1080}, "2": {"name": "Food Services and Drinking Places", "emp": 901.5}, "3": {"name": "Professional, Scientific, and Technical Services", "emp": 605.5}}}, {"FEATURE2": "County Seat", "NAME": "Sioux City", "POP_2010": "82684", "STATE_FIPS": "19", "LATITUDE": "42.4999942", "LONGITUDE": "-96.4003069", "qwi_geography": "43580", "industry": {"total": 10954.5, "1": {"name": "Educational Services", "emp": 1080}, "2": {"name": "Food Services and Drinking Places", "emp": 901.5}, "3": {"name": "Professional, Scientific, and Technical Services", "emp": 605.5}}}, {"FEATURE2": "County Seat", "NAME": "Spencer", "POP_2010": "11233", "STATE_FIPS": "19", "LATITUDE": "43.1413578", "LONGITUDE": "-95.1444393", "qwi_geography": "43980", "industry": {"total": 10954.5, "1": {"name": "Educational Services", "emp": 1080}, "2": {"name": "Food Services and Drinking Places", "emp": 901.5}, "3": {"name": "Professional, Scientific, and Technical Services", "emp": 605.5}}}, {"FEATURE2": "County Seat", "NAME": "Spirit Lake", "POP_2010": "4840", "STATE_FIPS": "19", "LATITUDE": "43.4221843", "LONGITUDE": "-95.1022169", "qwi_geography": "44020", "industry": {"total": 10954.5, "1": {"name": "Educational Services", "emp": 1080}, "2": {"name": "Food Services and Drinking Places", "emp": 901.5}, "3": {"name": "Professional, Scientific, and Technical Services", "emp": 605.5}}}, {"FEATURE2": "County Seat", "NAME": "Storm Lake", "POP_2010": "10600", "STATE_FIPS": "19", "LATITUDE": "42.6410915", "LONGITUDE": "-95.2097179", "qwi_geography": "44740", "industry": {"total": 10954.5, "1": {"name": "Educational Services", "emp": 1080}, "2": {"name": "Food Services and Drinking Places", "emp": 901.5}, "3": {"name": "Professional, Scientific, and Technical Services", "emp": 605.5}}}, {"FEATURE2": "County Seat", "NAME": "Waterloo", "POP_2010": "68406", "STATE_FIPS": "19", "LATITUDE": "42.4927641", "LONGITUDE": "-92.3429631", "qwi_geography": "47940", "industry": {"total": 10954.5, "1": {"name": "Educational Services", "emp": 1080}, "2": {"name": "Food Services and Drinking Places", "emp": 901.5}, "3": {"name": "Professional, Scientific, and Technical Services", "emp": 605.5}}}, {"FEATURE2": "-999", "NAME": "Arkansas City", "POP_2010": "12415", "STATE_FIPS": "20", "LATITUDE": "37.0619736", "LONGITUDE": "-97.0383712", "qwi_geography": "11680", "industry": {"total": 10954.5, "1": {"name": "Educational Services", "emp": 1080}, "2": {"name": "Food Services and Drinking Places", "emp": 901.5}, "3": {"name": "Professional, Scientific, and Technical Services", "emp": 605.5}}}, {"FEATURE2": "County Seat", "NAME": "Atchison", "POP_2010": "11021", "STATE_FIPS": "20", "LATITUDE": "39.5630521", "LONGITUDE": "-95.1216356", "qwi_geography": "11860", "industry": {"total": 10954.5, "1": {"name": "Educational Services", "emp": 1080}, "2": {"name": "Food Services and Drinking Places", "emp": 901.5}, "3": {"name": "Professional, Scientific, and Technical Services", "emp": 605.5}}}, {"FEATURE2": "-999", "NAME": "Coffeyville", "POP_2010": "10295", "STATE_FIPS": "20", "LATITUDE": "37.0373005", "LONGITUDE": "-95.6163665", "qwi_geography": "17700", "industry": {"total": 10954.5, "1": {"name": "Educational Services", "emp": 1080}, "2": {"name": "Food Services and Drinking Places", "emp": 901.5}, "3": {"name": "Professional, Scientific, and Technical Services", "emp": 605.5}}}, {"FEATURE2": "County Seat", "NAME": "Dodge City", "POP_2010": "27340", "STATE_FIPS": "20", "LATITUDE": "37.7527982", "LONGITUDE": "-100.0170787", "qwi_geography": "19980", "industry": {"total": 10954.5, "1": {"name": "Educational Services", "emp": 1080}, "2": {"name": "Food Services and Drinking Places", "emp": 901.5}, "3": {"name": "Professional, Scientific, and Technical Services", "emp": 605.5}}}, {"FEATURE2": "County Seat", "NAME": "Emporia", "POP_2010": "24916", "STATE_FIPS": "20", "LATITUDE": "38.403903", "LONGITUDE": "-96.1816626", "qwi_geography": "21380", "industry": {"total": 10954.5, "1": {"name": "Educational Services", "emp": 1080}, "2": {"name": "Food Services and Drinking Places", "emp": 901.5}, "3": {"name": "Professional, Scientific, and Technical Services", "emp": 605.5}}}, {"FEATURE2": "County Seat", "NAME": "Garden City", "POP_2010": "26658", "STATE_FIPS": "20", "LATITUDE": "37.9716898", "LONGITUDE": "-100.8726618", "qwi_geography": "23780", "industry": {"total": 10954.5, "1": {"name": "Educational Services", "emp": 1080}, "2": {"name": "Food Services and Drinking Places", "emp": 901.5}, "3": {"name": "Professional, Scientific, and Technical Services", "emp": 605.5}}}, {"FEATURE2": "County Seat", "NAME": "Great Bend", "POP_2010": "15995", "STATE_FIPS": "20", "LATITUDE": "38.3644567", "LONGITUDE": "-98.7648073", "qwi_geography": "24460", "industry": {"total": 10954.5, "1": {"name": "Educational Services", "emp": 1080}, "2": {"name": "Food Services and Drinking Places", "emp": 901.5}, "3": {"name": "Professional, Scientific, and Technical Services", "emp": 605.5}}}, {"FEATURE2": "County Seat", "NAME": "Hays", "POP_2010": "20510", "STATE_FIPS": "20", "LATITUDE": "38.8791783", "LONGITUDE": "-99.3267702", "qwi_geography": "25700", "industry": {"total": 10954.5, "1": {"name": "Educational Services", "emp": 1080}, "2": {"name": "Food Services and Drinking Places", "emp": 901.5}, "3": {"name": "Professional, Scientific, and Technical Services", "emp": 605.5}}}, {"FEATURE2": "County Seat", "NAME": "Hutchinson", "POP_2010": "42080", "STATE_FIPS": "20", "LATITUDE": "38.0608445", "LONGITUDE": "-97.9297743", "qwi_geography": "26740", "industry": {"total": 10954.5, "1": {"name": "Educational Services", "emp": 1080}, "2": {"name": "Food Services and Drinking Places", "emp": 901.5}, "3": {"name": "Professional, Scientific, and Technical Services", "emp": 605.5}}}, {"FEATURE2": "County Seat", "NAME": "Junction City", "POP_2010": "23353", "STATE_FIPS": "20", "LATITUDE": "39.0286093", "LONGITUDE": "-96.8313978", "qwi_geography": "27920", "industry": {"total": 10954.5, "1": {"name": "Educational Services", "emp": 1080}, "2": {"name": "Food Services and Drinking Places", "emp": 901.5}, "3": {"name": "Professional, Scientific, and Technical Services", "emp": 605.5}}}, {"FEATURE2": "County Seat", "NAME": "Kansas City", "POP_2010": "145786", "STATE_FIPS": "20", "LATITUDE": "39.1141708", "LONGITUDE": "-94.627457", "qwi_geography": "28140", "industry": {"total": 10954.5, "1": {"name": "Educational Services", "emp": 1080}, "2": {"name": "Food Services and Drinking Places", "emp": 901.5}, "3": {"name": "Professional, Scientific, and Technical Services", "emp": 605.5}}}, {"FEATURE2": "County Seat", "NAME": "Lawrence", "POP_2010": "87643", "STATE_FIPS": "20", "LATITUDE": "38.9716689", "LONGITUDE": "-95.2352501", "qwi_geography": "29940", "industry": {"total": 10954.5, "1": {"name": "Educational Services", "emp": 1080}, "2": {"name": "Food Services and Drinking Places", "emp": 901.5}, "3": {"name": "Professional, Scientific, and Technical Services", "emp": 605.5}}}, {"FEATURE2": "County Seat", "NAME": "Liberal", "POP_2010": "20525", "STATE_FIPS": "20", "LATITUDE": "37.0430812", "LONGITUDE": "-100.920999", "qwi_geography": "30580", "industry": {"total": 10954.5, "1": {"name": "Educational Services", "emp": 1080}, "2": {"name": "Food Services and Drinking Places", "emp": 901.5}, "3": {"name": "Professional, Scientific, and Technical Services", "emp": 605.5}}}, {"FEATURE2": "County Seat", "NAME": "Manhattan", "POP_2010": "52281", "STATE_FIPS": "20", "LATITUDE": "39.1836082", "LONGITUDE": "-96.5716694", "qwi_geography": "31740", "industry": {"total": 10954.5, "1": {"name": "Educational Services", "emp": 1080}, "2": {"name": "Food Services and Drinking Places", "emp": 901.5}, "3": {"name": "Professional, Scientific, and Technical Services", "emp": 605.5}}}, {"FEATURE2": "County Seat", "NAME": "McPherson", "POP_2010": "13155", "STATE_FIPS": "20", "LATITUDE": "38.3708415", "LONGITUDE": "-97.6642087", "qwi_geography": "32700", "industry": {"total": 10954.5, "1": {"name": "Educational Services", "emp": 1080}, "2": {"name": "Food Services and Drinking Places", "emp": 901.5}, "3": {"name": "Professional, Scientific, and Technical Services", "emp": 605.5}}}, {"FEATURE2": "County Seat", "NAME": "Ottawa", "POP_2010": "12649", "STATE_FIPS": "20", "LATITUDE": "38.6155668", "LONGITUDE": "-95.2677515", "qwi_geography": "36840", "industry": {"total": 10954.5, "1": {"name": "Educational Services", "emp": 1080}, "2": {"name": "Food Services and Drinking Places", "emp": 901.5}, "3": {"name": "Professional, Scientific, and Technical Services", "emp": 605.5}}}, {"FEATURE2": "-999", "NAME": "Parsons", "POP_2010": "10500", "STATE_FIPS": "20", "LATITUDE": "37.3403384", "LONGITUDE": "-95.2610838", "qwi_geography": "37660", "industry": {"total": 10954.5, "1": {"name": "Educational Services", "emp": 1080}, "2": {"name": "Food Services and Drinking Places", "emp": 901.5}, "3": {"name": "Professional, Scientific, and Technical Services", "emp": 605.5}}}, {"FEATURE2": "-999", "NAME": "Pittsburg", "POP_2010": "20233", "STATE_FIPS": "20", "LATITUDE": "37.4108841", "LONGITUDE": "-94.70496", "qwi_geography": "38260", "industry": {"total": 10954.5, "1": {"name": "Educational Services", "emp": 1080}, "2": {"name": "Food Services and Drinking Places", "emp": 901.5}, "3": {"name": "Professional, Scientific, and Technical Services", "emp": 605.5}}}, {"FEATURE2": "County Seat", "NAME": "Salina", "POP_2010": "47707", "STATE_FIPS": "20", "LATITUDE": "38.8402805", "LONGITUDE": "-97.6114237", "qwi_geography": "41460", "industry": {"total": 10954.5, "1": {"name": "Educational Services", "emp": 1080}, "2": {"name": "Food Services and Drinking Places", "emp": 901.5}, "3": {"name": "Professional, Scientific, and Technical Services", "emp": 605.5}}}, {"FEATURE2": "State Capital County Seat", "NAME": "Topeka", "POP_2010": "127473", "STATE_FIPS": "20", "LATITUDE": "39.0483336", "LONGITUDE": "-95.6780371", "qwi_geography": "45820", "industry": {"total": 10954.5, "1": {"name": "Educational Services", "emp": 1080}, "2": {"name": "Food Services and Drinking Places", "emp": 901.5}, "3": {"name": "Professional, Scientific, and Technical Services", "emp": 605.5}}}, {"FEATURE2": "County Seat", "NAME": "Wichita", "POP_2010": "382368", "STATE_FIPS": "20", "LATITUDE": "37.6922361", "LONGITUDE": "-97.3375448", "qwi_geography": "48620", "industry": {"total": 10954.5, "1": {"name": "Educational Services", "emp": 1080}, "2": {"name": "Food Services and Drinking Places", "emp": 901.5}, "3": {"name": "Professional, Scientific, and Technical Services", "emp": 605.5}}}, {"FEATURE2": "County Seat", "NAME": "Bardstown", "POP_2010": "11700", "STATE_FIPS": "21", "LATITUDE": "37.8092279", "LONGITUDE": "-85.4669025", "qwi_geography": "12680", "industry": {"total": 10954.5, "1": {"name": "Educational Services", "emp": 1080}, "2": {"name": "Food Services and Drinking Places", "emp": 901.5}, "3": {"name": "Professional, Scientific, and Technical Services", "emp": 605.5}}}, {"FEATURE2": "County Seat", "NAME": "Bowling Green", "POP_2010": "58067", "STATE_FIPS": "21", "LATITUDE": "36.9903199", "LONGITUDE": "-86.4436018", "qwi_geography": "14540", "industry": {"total": 10954.5, "1": {"name": "Educational Services", "emp": 1080}, "2": {"name": "Food Services and Drinking Places", "emp": 901.5}, "3": {"name": "Professional, Scientific, and Technical Services", "emp": 605.5}}}, {"FEATURE2": "County Seat", "NAME": "Campbellsville", "POP_2010": "9108", "STATE_FIPS": "21", "LATITUDE": "37.3433974", "LONGITUDE": "-85.3419069", "qwi_geography": "15820", "industry": {"total": 10954.5, "1": {"name": "Educational Services", "emp": 1080}, "2": {"name": "Food Services and Drinking Places", "emp": 901.5}, "3": {"name": "Professional, Scientific, and Technical Services", "emp": 605.5}}}, {"FEATURE2": "-999", "NAME": "Central City", "POP_2010": "5978", "STATE_FIPS": "21", "LATITUDE": "37.2939322", "LONGITUDE": "-87.1233292", "qwi_geography": "16420", "industry": {"total": 10954.5, "1": {"name": "Educational Services", "emp": 1080}, "2": {"name": "Food Services and Drinking Places", "emp": 901.5}, "3": {"name": "Professional, Scientific, and Technical Services", "emp": 605.5}}}, {"FEATURE2": "County Seat", "NAME": "Danville", "POP_2010": "16218", "STATE_FIPS": "21", "LATITUDE": "37.6456329", "LONGITUDE": "-84.7721702", "qwi_geography": "19220", "industry": {"total": 10954.5, "1": {"name": "Educational Services", "emp": 1080}, "2": {"name": "Food Services and Drinking Places", "emp": 901.5}, "3": {"name": "Professional, Scientific, and Technical Services", "emp": 605.5}}}, {"FEATURE2": "County Seat", "NAME": "Elizabethtown", "POP_2010": "28531", "STATE_FIPS": "21", "LATITUDE": "37.693952", "LONGITUDE": "-85.8591285", "qwi_geography": "21060", "industry": {"total": 10954.5, "1": {"name": "Educational Services", "emp": 1080}, "2": {"name": "Food Services and Drinking Places", "emp": 901.5}, "3": {"name": "Professional, Scientific, and Technical Services", "emp": 605.5}}}, {"FEATURE2": "State Capital County Seat", "NAME": "Frankfort", "POP_2010": "25527", "STATE_FIPS": "21", "LATITUDE": "38.2009055", "LONGITUDE": "-84.8732836", "qwi_geography": "23180", "industry": {"total": 10954.5, "1": {"name": "Educational Services", "emp": 1080}, "2": {"name": "Food Services and Drinking Places", "emp": 901.5}, "3": {"name": "Professional, Scientific, and Technical Services", "emp": 605.5}}}, {"FEATURE2": "County Seat", "NAME": "Glasgow", "POP_2010": "14028", "STATE_FIPS": "21", "LATITUDE": "36.995884", "LONGITUDE": "-85.9119215", "qwi_geography": "23980", "industry": {"total": 10954.5, "1": {"name": "Educational Services", "emp": 1080}, "2": {"name": "Food Services and Drinking Places", "emp": 901.5}, "3": {"name": "Professional, Scientific, and Technical Services", "emp": 605.5}}}, {"FEATURE2": "-999", "NAME": "Ashland", "POP_2010": "21684", "STATE_FIPS": "21", "LATITUDE": "38.4784144", "LONGITUDE": "-82.6379387", "qwi_geography": "26580", "industry": {"total": 10954.5, "1": {"name": "Educational Services", "emp": 1080}, "2": {"name": "Food Services and Drinking Places", "emp": 901.5}, "3": {"name": "Professional, Scientific, and Technical Services", "emp": 605.5}}}, {"FEATURE2": "County Seat", "NAME": "Lexington", "POP_2010": "295803", "STATE_FIPS": "21", "LATITUDE": "38.0497996", "LONGITUDE": "-84.4585485", "qwi_geography": "30460", "industry": {"total": 10954.5, "1": {"name": "Educational Services", "emp": 1080}, "2": {"name": "Food Services and Drinking Places", "emp": 901.5}, "3": {"name": "Professional, Scientific, and Technical Services", "emp": 605.5}}}, {"FEATURE2": "County Seat", "NAME": "London", "POP_2010": "7993", "STATE_FIPS": "21", "LATITUDE": "37.1289771", "LONGITUDE": "-84.0832646", "qwi_geography": "30940", "industry": {"total": 10954.5, "1": {"name": "Educational Services", "emp": 1080}, "2": {"name": "Food Services and Drinking Places", "emp": 901.5}, "3": {"name": "Professional, Scientific, and Technical Services", "emp": 605.5}}}, {"FEATURE2": "County Seat", "NAME": "Madisonville", "POP_2010": "19591", "STATE_FIPS": "21", "LATITUDE": "37.3281005", "LONGITUDE": "-87.4988882", "qwi_geography": "31580", "industry": {"total": 10954.5, "1": {"name": "Educational Services", "emp": 1080}, "2": {"name": "Food Services and Drinking Places", "emp": 901.5}, "3": {"name": "Professional, Scientific, and Technical Services", "emp": 605.5}}}, {"FEATURE2": "County Seat", "NAME": "Mayfield", "POP_2010": "10024", "STATE_FIPS": "21", "LATITUDE": "36.7417235", "LONGITUDE": "-88.6367154", "qwi_geography": "32460", "industry": {"total": 10954.5, "1": {"name": "Educational Services", "emp": 1080}, "2": {"name": "Food Services and Drinking Places", "emp": 901.5}, "3": {"name": "Professional, Scientific, and Technical Services", "emp": 605.5}}}, {"FEATURE2": "County Seat", "NAME": "Maysville", "POP_2010": "9011", "STATE_FIPS": "21", "LATITUDE": "38.6411854", "LONGITUDE": "-83.744365", "qwi_geography": "32500", "industry": {"total": 10954.5, "1": {"name": "Educational Services", "emp": 1080}, "2": {"name": "Food Services and Drinking Places", "emp": 901.5}, "3": {"name": "Professional, Scientific, and Technical Services", "emp": 605.5}}}, {"FEATURE2": "-999", "NAME": "Middlesborough", "POP_2010": "10334", "STATE_FIPS": "21", "LATITUDE": "36.6127189", "LONGITUDE": "-83.7226923", "qwi_geography": "33180", "industry": {"total": 10954.5, "1": {"name": "Educational Services", "emp": 1080}, "2": {"name": "Food Services and Drinking Places", "emp": 901.5}, "3": {"name": "Professional, Scientific, and Technical Services", "emp": 605.5}}}, {"FEATURE2": "County Seat", "NAME": "Mount Sterling", "POP_2010": "6895", "STATE_FIPS": "21", "LATITUDE": "38.0564679", "LONGITUDE": "-83.9432556", "qwi_geography": "34460", "industry": {"total": 10954.5, "1": {"name": "Educational Services", "emp": 1080}, "2": {"name": "Food Services and Drinking Places", "emp": 901.5}, "3": {"name": "Professional, Scientific, and Technical Services", "emp": 605.5}}}, {"FEATURE2": "County Seat", "NAME": "Murray", "POP_2010": "17741", "STATE_FIPS": "21", "LATITUDE": "36.6103334", "LONGITUDE": "-88.314761", "qwi_geography": "34660", "industry": {"total": 10954.5, "1": {"name": "Educational Services", "emp": 1080}, "2": {"name": "Food Services and Drinking Places", "emp": 901.5}, "3": {"name": "Professional, Scientific, and Technical Services", "emp": 605.5}}}, {"FEATURE2": "County Seat", "NAME": "Owensboro", "POP_2010": "57265", "STATE_FIPS": "21", "LATITUDE": "37.7742152", "LONGITUDE": "-87.1133304", "qwi_geography": "36980", "industry": {"total": 10954.5, "1": {"name": "Educational Services", "emp": 1080}, "2": {"name": "Food Services and Drinking Places", "emp": 901.5}, "3": {"name": "Professional, Scientific, and Technical Services", "emp": 605.5}}}, {"FEATURE2": "County Seat", "NAME": "Paducah", "POP_2010": "25024", "STATE_FIPS": "21", "LATITUDE": "37.0833893", "LONGITUDE": "-88.6000478", "qwi_geography": "37140", "industry": {"total": 10954.5, "1": {"name": "Educational Services", "emp": 1080}, "2": {"name": "Food Services and Drinking Places", "emp": 901.5}, "3": {"name": "Professional, Scientific, and Technical Services", "emp": 605.5}}}, {"FEATURE2": "County Seat", "NAME": "Richmond", "POP_2010": "31364", "STATE_FIPS": "21", "LATITUDE": "37.7478572", "LONGITUDE": "-84.2946539", "qwi_geography": "40080", "industry": {"total": 10954.5, "1": {"name": "Educational Services", "emp": 1080}, "2": {"name": "Food Services and Drinking Places", "emp": 901.5}, "3": {"name": "Professional, Scientific, and Technical Services", "emp": 605.5}}}, {"FEATURE2": "County Seat", "NAME": "Somerset", "POP_2010": "11196", "STATE_FIPS": "21", "LATITUDE": "37.0920222", "LONGITUDE": "-84.6041084", "qwi_geography": "43700", "industry": {"total": 10954.5, "1": {"name": "Educational Services", "emp": 1080}, "2": {"name": "Food Services and Drinking Places", "emp": 901.5}, "3": {"name": "Professional, Scientific, and Technical Services", "emp": 605.5}}}, {"FEATURE2": "-999", "NAME": "Union City", "POP_2010": "-999", "STATE_FIPS": "21", "LATITUDE": "37.7973018", "LONGITUDE": "-84.1977069", "qwi_geography": "46460", "industry": {"total": 10954.5, "1": {"name": "Educational Services", "emp": 1080}, "2": {"name": "Food Services and Drinking Places", "emp": 901.5}, "3": {"name": "Professional, Scientific, and Technical Services", "emp": 605.5}}}, {"FEATURE2": "County Seat", "NAME": "Alexandria", "POP_2010": "47723", "STATE_FIPS": "22", "LATITUDE": "31.3112936", "LONGITUDE": "-92.4451371", "qwi_geography": "10780", "industry": {"total": 10954.5, "1": {"name": "Educational Services", "emp": 1080}, "2": {"name": "Food Services and Drinking Places", "emp": 901.5}, "3": {"name": "Professional, Scientific, and Technical Services", "emp": 605.5}}}, {"FEATURE2": "County Seat", "NAME": "Bastrop", "POP_2010": "11365", "STATE_FIPS": "22", "LATITUDE": "32.7796027439", "LONGITUDE": "-91.910858693", "qwi_geography": "12820", "industry": {"total": 10954.5, "1": {"name": "Educational Services", "emp": 1080}, "2": {"name": "Food Services and Drinking Places", "emp": 901.5}, "3": {"name": "Professional, Scientific, and Technical Services", "emp": 605.5}}}, {"FEATURE2": "State Capital County Seat", "NAME": "Baton Rouge", "POP_2010": "229493", "STATE_FIPS": "22", "LATITUDE": "30.4507462", "LONGITUDE": "-91.154551", "qwi_geography": "12940", "industry": {"total": 10954.5, "1": {"name": "Educational Services", "emp": 1080}, "2": {"name": "Food Services and Drinking Places", "emp": 901.5}, "3": {"name": "Professional, Scientific, and Technical Services", "emp": 605.5}}}, {"FEATURE2": "-999", "NAME": "Bogalusa", "POP_2010": "12232", "STATE_FIPS": "22", "LATITUDE": "30.7910204", "LONGITUDE": "-89.8486858", "qwi_geography": "14220", "industry": {"total": 10954.5, "1": {"name": "Educational Services", "emp": 1080}, "2": {"name": "Food Services and Drinking Places", "emp": 901.5}, "3": {"name": "Professional, Scientific, and Technical Services", "emp": 605.5}}}, {"FEATURE2": "County Seat", "NAME": "DeRidder", "POP_2010": "10578", "STATE_FIPS": "22", "LATITUDE": "30.8463055", "LONGITUDE": "-93.2890528", "qwi_geography": "19760", "industry": {"total": 10954.5, "1": {"name": "Educational Services", "emp": 1080}, "2": {"name": "Food Services and Drinking Places", "emp": 901.5}, "3": {"name": "Professional, Scientific, and Technical Services", "emp": 605.5}}}, {"FEATURE2": "-999", "NAME": "Hammond", "POP_2010": "20019", "STATE_FIPS": "22", "LATITUDE": "30.5043583", "LONGITUDE": "-90.4611995", "qwi_geography": "25220", "industry": {"total": 10954.5, "1": {"name": "Educational Services", "emp": 1080}, "2": {"name": "Food Services and Drinking Places", "emp": 901.5}, "3": {"name": "Professional, Scientific, and Technical Services", "emp": 605.5}}}, {"FEATURE2": "County Seat", "NAME": "Houma", "POP_2010": "33727", "STATE_FIPS": "22", "LATITUDE": "29.5957696", "LONGITUDE": "-90.7195348", "qwi_geography": "26380", "industry": {"total": 10954.5, "1": {"name": "Educational Services", "emp": 1080}, "2": {"name": "Food Services and Drinking Places", "emp": 901.5}, "3": {"name": "Professional, Scientific, and Technical Services", "emp": 605.5}}}, {"FEATURE2": "County Seat", "NAME": "Jennings", "POP_2010": "10383", "STATE_FIPS": "22", "LATITUDE": "30.2224284", "LONGITUDE": "-92.657085", "qwi_geography": "27660", "industry": {"total": 10954.5, "1": {"name": "Educational Services", "emp": 1080}, "2": {"name": "Food Services and Drinking Places", "emp": 901.5}, "3": {"name": "Professional, Scientific, and Technical Services", "emp": 605.5}}}, {"FEATURE2": "County Seat", "NAME": "Lafayette", "POP_2010": "120623", "STATE_FIPS": "22", "LATITUDE": "30.2240897", "LONGITUDE": "-92.0198427", "qwi_geography": "29180", "industry": {"total": 10954.5, "1": {"name": "Educational Services", "emp": 1080}, "2": {"name": "Food Services and Drinking Places", "emp": 901.5}, "3": {"name": "Professional, Scientific, and Technical Services", "emp": 605.5}}}, {"FEATURE2": "County Seat", "NAME": "Lake Charles", "POP_2010": "71993", "STATE_FIPS": "22", "LATITUDE": "30.2265949", "LONGITUDE": "-93.2173759", "qwi_geography": "29340", "industry": {"total": 10954.5, "1": {"name": "Educational Services", "emp": 1080}, "2": {"name": "Food Services and Drinking Places", "emp": 901.5}, "3": {"name": "Professional, Scientific, and Technical Services", "emp": 605.5}}}, {"FEATURE2": "County Seat", "NAME": "Monroe", "POP_2010": "48815", "STATE_FIPS": "22", "LATITUDE": "32.5093109", "LONGITUDE": "-92.1193012", "qwi_geography": "33740", "industry": {"total": 10954.5, "1": {"name": "Educational Services", "emp": 1080}, "2": {"name": "Food Services and Drinking Places", "emp": 901.5}, "3": {"name": "Professional, Scientific, and Technical Services", "emp": 605.5}}}, {"FEATURE2": "-999", "NAME": "Morgan City", "POP_2010": "12404", "STATE_FIPS": "22", "LATITUDE": "29.6993748", "LONGITUDE": "-91.20677", "qwi_geography": "34020", "industry": {"total": 10954.5, "1": {"name": "Educational Services", "emp": 1080}, "2": {"name": "Food Services and Drinking Places", "emp": 901.5}, "3": {"name": "Professional, Scientific, and Technical Services", "emp": 605.5}}}, {"FEATURE2": "-999", "NAME": "Natchez", "POP_2010": "597", "STATE_FIPS": "22", "LATITUDE": "31.6754441", "LONGITUDE": "-93.0446069", "qwi_geography": "35020", "industry": {"total": 10954.5, "1": {"name": "Educational Services", "emp": 1080}, "2": {"name": "Food Services and Drinking Places", "emp": 901.5}, "3": {"name": "Professional, Scientific, and Technical Services", "emp": 605.5}}}, {"FEATURE2": "County Seat", "NAME": "Natchitoches", "POP_2010": "18323", "STATE_FIPS": "22", "LATITUDE": "31.7607195", "LONGITUDE": "-93.0862749", "qwi_geography": "35060", "industry": {"total": 10954.5, "1": {"name": "Educational Services", "emp": 1080}, "2": {"name": "Food Services and Drinking Places", "emp": 901.5}, "3": {"name": "Professional, Scientific, and Technical Services", "emp": 605.5}}}, {"FEATURE2": "County Seat", "NAME": "New Orleans", "POP_2010": "343829", "STATE_FIPS": "22", "LATITUDE": "29.9546482", "LONGITUDE": "-90.075072", "qwi_geography": "35380", "industry": {"total": 10954.5, "1": {"name": "Educational Services", "emp": 1080}, "2": {"name": "Food Services and Drinking Places", "emp": 901.5}, "3": {"name": "Professional, Scientific, and Technical Services", "emp": 605.5}}}, {"FEATURE2": "County Seat", "NAME": "Opelousas", "POP_2010": "16634", "STATE_FIPS": "22", "LATITUDE": "30.5335302", "LONGITUDE": "-92.081509", "qwi_geography": "36660", "industry": {"total": 10954.5, "1": {"name": "Educational Services", "emp": 1080}, "2": {"name": "Food Services and Drinking Places", "emp": 901.5}, "3": {"name": "Professional, Scientific, and Technical Services", "emp": 605.5}}}, {"FEATURE2": "County Seat", "NAME": "Ruston", "POP_2010": "21859", "STATE_FIPS": "22", "LATITUDE": "32.5232053", "LONGITUDE": "-92.637927", "qwi_geography": "40820", "industry": {"total": 10954.5, "1": {"name": "Educational Services", "emp": 1080}, "2": {"name": "Food Services and Drinking Places", "emp": 901.5}, "3": {"name": "Professional, Scientific, and Technical Services", "emp": 605.5}}}, {"FEATURE2": "County Seat", "NAME": "Shreveport", "POP_2010": "199311", "STATE_FIPS": "22", "LATITUDE": "32.5065023089", "LONGITUDE": "-93.7694109815", "qwi_geography": "43340", "industry": {"total": 10954.5, "1": {"name": "Educational Services", "emp": 1080}, "2": {"name": "Food Services and Drinking Places", "emp": 901.5}, "3": {"name": "Professional, Scientific, and Technical Services", "emp": 605.5}}}, {"FEATURE2": "State Capital County Seat", "NAME": "Augusta", "POP_2010": "19136", "STATE_FIPS": "23", "LATITUDE": "44.3106241", "LONGITUDE": "-69.7794897", "qwi_geography": "12300", "industry": {"total": 10954.5, "1": {"name": "Educational Services", "emp": 1080}, "2": {"name": "Food Services and Drinking Places", "emp": 901.5}, "3": {"name": "Professional, Scientific, and Technical Services", "emp": 605.5}}}, {"FEATURE2": "County Seat", "NAME": "Bangor", "POP_2010": "33039", "STATE_FIPS": "23", "LATITUDE": "44.8011821", "LONGITUDE": "-68.7778138", "qwi_geography": "12620", "industry": {"total": 10954.5, "1": {"name": "Educational Services", "emp": 1080}, "2": {"name": "Food Services and Drinking Places", "emp": 901.5}, "3": {"name": "Professional, Scientific, and Technical Services", "emp": 605.5}}}, {"FEATURE2": "-999", "NAME": "Lewiston", "POP_2010": "36592", "STATE_FIPS": "23", "LATITUDE": "44.100351", "LONGITUDE": "-70.2147764", "qwi_geography": "30340", "industry": {"total": 10954.5, "1": {"name": "Educational Services", "emp": 1080}, "2": {"name": "Food Services and Drinking Places", "emp": 901.5}, "3": {"name": "Professional, Scientific, and Technical Services", "emp": 605.5}}}, {"FEATURE2": "County Seat", "NAME": "Portland", "POP_2010": "66194", "STATE_FIPS": "23", "LATITUDE": "43.661471", "LONGITUDE": "-70.2553259", "qwi_geography": "38860", "industry": {"total": 10954.5, "1": {"name": "Educational Services", "emp": 1080}, "2": {"name": "Food Services and Drinking Places", "emp": 901.5}, "3": {"name": "Professional, Scientific, and Technical Services", "emp": 605.5}}}, {"FEATURE2": "County Seat", "NAME": "Baltimore", "POP_2010": "620961", "STATE_FIPS": "24", "LATITUDE": "39.2903848", "LONGITUDE": "-76.6121893", "qwi_geography": "12580", "industry": {"total": 10954.5, "1": {"name": "Educational Services", "emp": 1080}, "2": {"name": "Food Services and Drinking Places", "emp": 901.5}, "3": {"name": "Professional, Scientific, and Technical Services", "emp": 605.5}}}, {"FEATURE2": "-999", "NAME": "California", "POP_2010": "11857", "STATE_FIPS": "24", "LATITUDE": "38.3004029", "LONGITUDE": "-76.5074542", "qwi_geography": "15680", "industry": {"total": 10954.5, "1": {"name": "Educational Services", "emp": 1080}, "2": {"name": "Food Services and Drinking Places", "emp": 901.5}, "3": {"name": "Professional, Scientific, and Technical Services", "emp": 605.5}}}, {"FEATURE2": "County Seat", "NAME": "Cambridge", "POP_2010": "12326", "STATE_FIPS": "24", "LATITUDE": "38.5631744", "LONGITUDE": "-76.0788292", "qwi_geography": "15700", "industry": {"total": 10954.5, "1": {"name": "Educational Services", "emp": 1080}, "2": {"name": "Food Services and Drinking Places", "emp": 901.5}, "3": {"name": "Professional, Scientific, and Technical Services", "emp": 605.5}}}, {"FEATURE2": "County Seat", "NAME": "Cumberland", "POP_2010": "20859", "STATE_FIPS": "24", "LATITUDE": "39.6528654", "LONGITUDE": "-78.7625185", "qwi_geography": "19060", "industry": {"total": 10954.5, "1": {"name": "Educational Services", "emp": 1080}, "2": {"name": "Food Services and Drinking Places", "emp": 901.5}, "3": {"name": "Professional, Scientific, and Technical Services", "emp": 605.5}}}, {"FEATURE2": "County Seat", "NAME": "Easton", "POP_2010": "15945", "STATE_FIPS": "24", "LATITUDE": "38.7742826", "LONGITUDE": "-76.0763305", "qwi_geography": "20660", "industry": {"total": 10954.5, "1": {"name": "Educational Services", "emp": 1080}, "2": {"name": "Food Services and Drinking Places", "emp": 901.5}, "3": {"name": "Professional, Scientific, and Technical Services", "emp": 605.5}}}, {"FEATURE2": "County Seat", "NAME": "Hagerstown", "POP_2010": "39662", "STATE_FIPS": "24", "LATITUDE": "39.6417629", "LONGITUDE": "-77.7199932", "qwi_geography": "25180", "industry": {"total": 10954.5, "1": {"name": "Educational Services", "emp": 1080}, "2": {"name": "Food Services and Drinking Places", "emp": 901.5}, "3": {"name": "Professional, Scientific, and Technical Services", "emp": 605.5}}}, {"FEATURE2": "County Seat", "NAME": "Salisbury", "POP_2010": "30343", "STATE_FIPS": "24", "LATITUDE": "38.3606736", "LONGITUDE": "-75.5993692", "qwi_geography": "41540", "industry": {"total": 10954.5, "1": {"name": "Educational Services", "emp": 1080}, "2": {"name": "Food Services and Drinking Places", "emp": 901.5}, "3": {"name": "Professional, Scientific, and Technical Services", "emp": 605.5}}}, {"FEATURE2": "State Capital County Seat", "NAME": "Boston", "POP_2010": "617594", "STATE_FIPS": "25", "LATITUDE": "42.3584308", "LONGITUDE": "-71.0597732", "qwi_geography": "14460", "industry": {"total": 10954.5, "1": {"name": "Educational Services", "emp": 1080}, "2": {"name": "Food Services and Drinking Places", "emp": 901.5}, "3": {"name": "Professional, Scientific, and Technical Services", "emp": 605.5}}}, {"FEATURE2": "County Seat", "NAME": "Pittsfield", "POP_2010": "44737", "STATE_FIPS": "25", "LATITUDE": "42.4500846", "LONGITUDE": "-73.2453824", "qwi_geography": "38340", "industry": {"total": 10954.5, "1": {"name": "Educational Services", "emp": 1080}, "2": {"name": "Food Services and Drinking Places", "emp": 901.5}, "3": {"name": "Professional, Scientific, and Technical Services", "emp": 605.5}}}, {"FEATURE2": "-999", "NAME": "Warwick", "POP_2010": "-999", "STATE_FIPS": "25", "LATITUDE": "42.6820293", "LONGITUDE": "-72.3389743", "qwi_geography": "39300", "industry": {"total": 10954.5, "1": {"name": "Educational Services", "emp": 1080}, "2": {"name": "Food Services and Drinking Places", "emp": 901.5}, "3": {"name": "Professional, Scientific, and Technical Services", "emp": 605.5}}}, {"FEATURE2": "County Seat", "NAME": "Springfield", "POP_2010": "153060", "STATE_FIPS": "25", "LATITUDE": "42.1014831", "LONGITUDE": "-72.589811", "qwi_geography": "44140", "industry": {"total": 10954.5, "1": {"name": "Educational Services", "emp": 1080}, "2": {"name": "Food Services and Drinking Places", "emp": 901.5}, "3": {"name": "Professional, Scientific, and Technical Services", "emp": 605.5}}}, {"FEATURE2": "-999", "NAME": "Vineyard Haven", "POP_2010": "2114", "STATE_FIPS": "25", "LATITUDE": "41.4542786", "LONGITUDE": "-70.6036395", "qwi_geography": "47240", "industry": {"total": 10954.5, "1": {"name": "Educational Services", "emp": 1080}, "2": {"name": "Food Services and Drinking Places", "emp": 901.5}, "3": {"name": "Professional, Scientific, and Technical Services", "emp": 605.5}}},